[
  {
    "name": "Missoula KOA Holiday",
    "slug": "missoula-koa-holiday",
    "category": "koa",
    "lat": 46.8964609,
    "lng": -114.0424053,
    "nearestTown": "missoula",
    "nearestTownName": "Missoula",
    "address": "3450 Tina Ave, Missoula, MT 59808",
    "phone": "\"(406) 370-6633\"",
    "website": null,
    "rating": 4,
    "reviews": 1088
  },
  {
    "name": "Granite Peak RV Resort",
    "slug": "granite-peak-rv-resort",
    "category": "private",
    "lat": 46.9609708,
    "lng": -114.1350457,
    "nearestTown": "missoula",
    "nearestTownName": "Missoula",
    "address": "9900 Thoroughbred Ln, Missoula, MT 59808",
    "phone": "\"(406) 549-4416\"",
    "website": "\"https://www.jimandmarys.com/\"",
    "rating": 4.4,
    "reviews": 752
  },
  {
    "name": "Great Falls KOA Holiday",
    "slug": "great-falls-koa-holiday",
    "category": "koa",
    "lat": 47.4875491,
    "lng": -111.2216082,
    "nearestTown": "great-falls",
    "nearestTownName": "Great Falls",
    "address": "1500 51st St S, Great Falls, MT 59405",
    "phone": "\"(406) 791-7700\"",
    "website": "\"http://www.fs.usda.gov/recarea/lcnf/recreation/ohv/recarea/?recid=61542&actid=29\"",
    "rating": 4.2,
    "reviews": 747
  },
  {
    "name": "Butte KOA Journey",
    "slug": "butte-koa-journey",
    "category": "koa",
    "lat": 45.993959,
    "lng": -112.531173,
    "nearestTown": "butte",
    "nearestTownName": "Butte",
    "address": "1601 Kaw Ave, Butte, MT 59701",
    "phone": "\"(406) 494-2147\"",
    "website": "\"https://www.recreation.gov/camping/campgrounds/234398\"",
    "rating": 4,
    "reviews": 728
  },
  {
    "name": "Bozeman Hot Springs Campground",
    "slug": "bozeman-hot-springs-campground",
    "category": "private",
    "lat": 45.660086,
    "lng": -111.1899187,
    "nearestTown": "bozeman",
    "nearestTownName": "Bozeman",
    "address": "150 Welcome Dr, Bozeman, MT 59718",
    "phone": "\"(406) 587-1575\"",
    "website": "\"http://www.bearcanyoncampground.com/\"",
    "rating": 4.2,
    "reviews": 630
  },
  {
    "name": "Yellowstone River Campground",
    "slug": "yellowstone-river-campground",
    "category": "private",
    "lat": 45.7634704,
    "lng": -108.4818803,
    "nearestTown": "billings",
    "nearestTownName": "Billings",
    "address": "309 Garden Ave, Billings, MT 59101, United States",
    "phone": "\"+1 406-252-3104\"",
    "website": "\"https://koa.com/campgrounds/billings/?utm_source=google&utm_medium=organic&utm_campaign=gbp\"",
    "rating": 3.9,
    "reviews": 597
  },
  {
    "name": "7th Ranch RV Camp",
    "slug": "7th-ranch-rv-camp",
    "category": "rv",
    "lat": 45.4919436,
    "lng": -107.3776587,
    "nearestTown": "lodge-grass",
    "nearestTownName": "Lodge Grass",
    "address": "I-90 S Exit 514, Reno Creek Rd, Garryowen, MT 59031",
    "phone": "\"(406) 671-0121\"",
    "website": "\"https://grandviewcamp.com/\"",
    "rating": 4.7,
    "reviews": 527
  },
  {
    "name": "Miles City KOA Journey",
    "slug": "miles-city-koa-journey",
    "category": "koa",
    "lat": 46.406312,
    "lng": -105.859304,
    "nearestTown": "miles-city",
    "nearestTownName": "Miles City",
    "address": "1 Palmer St, Miles City, MT 59301",
    "phone": "\"(406) 234-1511\"",
    "website": "\"http://bigskycampandrvpark.com/\"",
    "rating": 4.3,
    "reviews": 458
  },
  {
    "name": "Great Falls RV Park",
    "slug": "great-falls-rv-park",
    "category": "rv",
    "lat": 47.4900362,
    "lng": -111.3321764,
    "nearestTown": "great-falls",
    "nearestTownName": "Great Falls",
    "address": "1403 11th St SW, Great Falls, MT 59404",
    "phone": "\"(406) 727-3191\"",
    "website": "\"https://koa.com/campgrounds/great-falls/?utm_source=google&utm_medium=organic&utm_campaign=gbp\"",
    "rating": 3.9,
    "reviews": 401
  },
  {
    "name": "Cardwell Campground",
    "slug": "cardwell-campground",
    "category": "private",
    "lat": 45.8692311,
    "lng": -111.9488101,
    "nearestTown": "whitehall",
    "nearestTownName": "Whitehall",
    "address": "770 MT-2 Suite A, Cardwell, MT 59721",
    "phone": "\"(406) 287-3541\"",
    "website": "\"http://montanastateparks.reserveamerica.com/camping/r/campgroundDetails.do?contractCode=MT&parkId=630315\"",
    "rating": 4.1,
    "reviews": 386
  },
  {
    "name": "Grandview Campground & RV Park",
    "slug": "grandview-campground-and-rv-park",
    "category": "private",
    "lat": 45.7392106,
    "lng": -107.6140043,
    "nearestTown": "hardin",
    "nearestTownName": "Hardin",
    "address": "1002 N Mitchell Ave, Hardin, MT 59034",
    "phone": "\"(406) 665-1635\"",
    "website": "\"https://koa.com/campgrounds/hardin/?utm_source=google&utm_medium=organic&utm_campaign=gbp\"",
    "rating": 4,
    "reviews": 359
  },
  {
    "name": "Spring Creek Campground and Trout Ranch",
    "slug": "spring-creek-campground-and-trout-ranch",
    "category": "private",
    "lat": 45.8022867,
    "lng": -109.9610833,
    "nearestTown": "big-timber",
    "nearestTownName": "Big Timber",
    "address": "257 Main Boulder Rd, Big Timber, MT 59011",
    "phone": "\"(406) 932-6569\"",
    "website": "\"https://koa.com/campgrounds/big-timber/?utm_source=google&utm_medium=organic&utm_campaign=gbp\"",
    "rating": 4.6,
    "reviews": 353
  },
  {
    "name": "Big Timber / Greycliff KOA Journey",
    "slug": "big-timber-greycliff-koa-journey",
    "category": "koa",
    "lat": 45.773938,
    "lng": -109.799312,
    "nearestTown": "big-timber",
    "nearestTownName": "Big Timber",
    "address": "693 Hwy 10 E, Big Timber, MT 59011",
    "phone": "\"(406) 932-6569\"",
    "website": "\"https://koa.com/campgrounds/big-timber/\"",
    "rating": 4,
    "reviews": 353
  },
  {
    "name": "Three Forks KOA",
    "slug": "three-forks-koa",
    "category": "koa",
    "lat": 45.902613,
    "lng": -111.602346,
    "nearestTown": "three-forks",
    "nearestTownName": "Three Forks",
    "address": "15 KOA Rd, Three Forks, MT 59752",
    "phone": null,
    "website": null,
    "rating": 4.2,
    "reviews": 335
  },
  {
    "name": "Wayfarers Campground",
    "slug": "wayfarers-campground",
    "category": "state",
    "lat": 48.0534723,
    "lng": -114.0829755,
    "nearestTown": "bigfork",
    "nearestTownName": "Bigfork",
    "address": "8600 Montana Hwy 35, Bigfork, MT 59911",
    "phone": "\"(406) 752-5501\"",
    "website": "\"https://fwp.mt.gov/stateparks/somers-beach\"",
    "rating": 4.5,
    "reviews": 329
  },
  {
    "name": "Bernie and Sharon's Riverfront RV Park",
    "slug": "bernie-and-sharons-riverfront-rv-park",
    "category": "rv",
    "lat": 46.5191421,
    "lng": -112.7955245,
    "nearestTown": "drummond",
    "nearestTownName": "Drummond",
    "address": "115 Riverfront Ln, Garrison, MT 59731",
    "phone": "\"(406) 846-3848\"",
    "website": "\"http://www.indiancreekcampground.net/\"",
    "rating": 4.3,
    "reviews": 329
  },
  {
    "name": "Campground St. Regis",
    "slug": "campground-st-regis",
    "category": "private",
    "lat": 47.3014197,
    "lng": -115.1343771,
    "nearestTown": "superior",
    "nearestTownName": "Superior",
    "address": "660 Frontage Rd W, St Regis, MT 59866",
    "phone": "\"(406) 822-4233\"",
    "website": "\"http://www.fs.usda.gov/recarea/lolo/recarea/?recid=10334\"",
    "rating": 4.7,
    "reviews": 328
  },
  {
    "name": "Red Lodge KOA Journey",
    "slug": "red-lodge-koa-journey",
    "category": "koa",
    "lat": 45.2567399,
    "lng": -109.2281638,
    "nearestTown": "red-lodge",
    "nearestTownName": "Red Lodge",
    "address": "7464 US-212, Red Lodge, MT 59068",
    "phone": "\"(406) 446-2103\"",
    "website": "\"https://www.fs.usda.gov/recarea/custergallatin/recarea/?recid=60861\"",
    "rating": 4.3,
    "reviews": 322
  },
  {
    "name": "Indian Creek Campground",
    "slug": "indian-creek-campground",
    "category": "private",
    "lat": 46.4088701,
    "lng": -112.7238506,
    "nearestTown": "anaconda",
    "nearestTownName": "Anaconda",
    "address": "745 Maverick Ln, Deer Lodge, MT 59722",
    "phone": "\"(406) 563-2967\"",
    "website": null,
    "rating": 4.4,
    "reviews": 302
  },
  {
    "name": "Rocky Mountain Hi Campground",
    "slug": "rocky-mountain-hi-campground",
    "category": "private",
    "lat": 48.2526012,
    "lng": -114.2504345,
    "nearestTown": "kalispell",
    "nearestTownName": "Kalispell",
    "address": "825 Helena Flats Rd, Kalispell, MT 59901",
    "phone": "\"(406) 752-4008\"",
    "website": "\"https://threebearsrvpark.com/\"",
    "rating": 4.5,
    "reviews": 293
  },
  {
    "name": "Polson / Flathead Lake KOA Holiday",
    "slug": "polson-flathead-lake-koa-holiday",
    "category": "koa",
    "lat": 47.6993947,
    "lng": -114.1867449,
    "nearestTown": "polson",
    "nearestTownName": "Polson",
    "address": "200 Irvine Flats Rd, Polson, MT 59860",
    "phone": "\"(406) 887-2715\"",
    "website": "\"http://stateparks.mt.gov/finley-point/\"",
    "rating": 4.5,
    "reviews": 293
  },
  {
    "name": "Cooney Reservoir",
    "slug": "cooney-reservoir",
    "category": "state",
    "lat": 45.4415815,
    "lng": -109.2054711,
    "nearestTown": "joliet",
    "nearestTownName": "Joliet",
    "address": "86 Lake Shore Rd, Roberts, MT 59070",
    "phone": "\"(406) 662-3677\"",
    "website": "\"https://www.bridger-mt.com/parks\"",
    "rating": 4.3,
    "reviews": 275
  },
  {
    "name": "Dew Drop Rv Park",
    "slug": "dew-drop-rv-park",
    "category": "rv",
    "lat": 45.5225478,
    "lng": -109.4381657,
    "nearestTown": "columbus",
    "nearestTownName": "Columbus",
    "address": "3315 MT-78, Absarokee, MT 59001",
    "phone": null,
    "website": null,
    "rating": 4,
    "reviews": 267
  },
  {
    "name": "Angler's Roost RV and Campground",
    "slug": "anglers-roost-rv-and-campground",
    "category": "private",
    "lat": 46.1995511,
    "lng": -114.1670273,
    "nearestTown": "hamilton",
    "nearestTownName": "Hamilton",
    "address": "815 US-93, Hamilton, MT 59840",
    "phone": "\"(406) 363-7100\"",
    "website": "\"http://www.fs.usda.gov/recarea/bitterroot/recarea/?recid=60306\"",
    "rating": 4,
    "reviews": 248
  },
  {
    "name": "Kootenai River Campground",
    "slug": "kootenai-river-campground",
    "category": "private",
    "lat": 48.500132,
    "lng": -115.9202107,
    "nearestTown": "troy",
    "nearestTownName": "Troy",
    "address": "11251 US-2, Troy, MT 59935",
    "phone": "\"(406) 293-8395\"",
    "website": "\"https://woodlandrvpark.com/\"",
    "rating": 4.8,
    "reviews": 246
  },
  {
    "name": "Fox Den RV and Campground",
    "slug": "fox-den-rv-and-campground",
    "category": "rv",
    "lat": 44.6641161,
    "lng": -111.1117919,
    "nearestTown": "west-yellowstone",
    "nearestTownName": "West Yellowstone",
    "address": "635 Gibbon Ave, West Yellowstone, MT 59758",
    "phone": "\"(626) 848-3080\"",
    "website": "\"https://www.westyellowstonerv.com/\"",
    "rating": 3.6,
    "reviews": 232
  },
  {
    "name": "2 Bar Lazy H RV Campgrounds",
    "slug": "2-bar-lazy-h-rv-campgrounds",
    "category": "private",
    "lat": 46.009929,
    "lng": -112.623382,
    "nearestTown": "butte",
    "nearestTownName": "Butte",
    "address": "122015 W Browns Gulch Rd, Butte, MT 59701",
    "phone": "\"(406) 683-3900\"",
    "website": "\"http://www.fs.usda.gov/recarea/bdnf/recreation/hiking/recarea/?recid=5696&actid=29\"",
    "rating": 3.8,
    "reviews": 224
  },
  {
    "name": "Perry’s RV Park and Campground",
    "slug": "perry-s-rv-park-and-campground",
    "category": "private",
    "lat": 45.1514817,
    "lng": -109.2729924,
    "nearestTown": "red-lodge",
    "nearestTownName": "Red Lodge",
    "address": "6664 US-212, Red Lodge, MT 59068",
    "phone": "\"(406) 446-2103\"",
    "website": "\"https://www.fs.usda.gov/recarea/custergallatin/recarea/?recid=60861\"",
    "rating": 4.6,
    "reviews": 205
  },
  {
    "name": "Lewis & Clark Caverns Campground",
    "slug": "lewis-and-clark-caverns-campground",
    "category": "state",
    "lat": 45.8233217,
    "lng": -111.8558022,
    "nearestTown": "whitehall",
    "nearestTownName": "Whitehall",
    "address": "Whitehall, MT 59759",
    "phone": null,
    "website": null,
    "rating": 4.5,
    "reviews": 204
  },
  {
    "name": "Chewing Black Bones Campground",
    "slug": "chewing-black-bones-campground",
    "category": "private",
    "lat": 48.8264757,
    "lng": -113.418262,
    "nearestTown": "browning",
    "nearestTownName": "Browning",
    "address": "US-89, Babb, MT 59411",
    "phone": "\"(406) 239-4454\"",
    "website": "\"http://www.dividecreekcampground.com/\"",
    "rating": 4,
    "reviews": 186
  },
  {
    "name": "Choteau Mountain View RV Campground",
    "slug": "choteau-mountain-view-rv-campground",
    "category": "rv",
    "lat": 47.8160095,
    "lng": -112.165596,
    "nearestTown": "choteau",
    "nearestTownName": "Choteau",
    "address": "85 Hwy 221, Choteau, MT 59422",
    "phone": "\"(406) 466-2510\"",
    "website": "\"https://choteaumt.org/parks#mainpark\"",
    "rating": 4.7,
    "reviews": 186
  },
  {
    "name": "Two Medicine Campground",
    "slug": "two-medicine-campground",
    "category": "private",
    "lat": 48.4915363,
    "lng": -113.364551,
    "nearestTown": "east-glacier",
    "nearestTownName": "East Glacier",
    "address": "East Glacier Park, MT 59434, United States",
    "phone": "\"+1 406-666-2412\"",
    "website": "\"http://www.nps.gov/bica/\"",
    "rating": 4.7,
    "reviews": 184
  },
  {
    "name": "Shady Rest RV Park",
    "slug": "shady-rest-rv-park",
    "category": "rv",
    "lat": 48.1967637,
    "lng": -106.6204788,
    "nearestTown": "glasgow",
    "nearestTownName": "Glasgow",
    "address": "8 Lasar Dr, Glasgow, MT 59230",
    "phone": "\"(406) 672-5196\"",
    "website": "\"/url?q=https://www.theparkmt.com/&opi=79508299&sa=U&ved=0ahUKEwj03sO7mfmMAxVt4skDHfG_EowQ61gIOigN&usg=AOvVaw1T8eivqpsdNonXaX6rnEmc\"",
    "rating": 4.4,
    "reviews": 178
  },
  {
    "name": "Helena Campground and RV Park",
    "slug": "helena-campground-and-rv-park",
    "category": "private",
    "lat": 46.6572066,
    "lng": -112.0224042,
    "nearestTown": "helena",
    "nearestTownName": "Helena",
    "address": "5820 N Montana Ave, Helena, MT 59602",
    "phone": "\"(406) 475-3921\"",
    "website": "\"http://www.recreation.gov/camping/riverside-campground-and-group-use-area/r/campgroundDetails.do?contractCode=NRSO&parkId=100030\"",
    "rating": 3.2,
    "reviews": 175
  },
  {
    "name": "Big Sky Camp and RV Park",
    "slug": "big-sky-camp-and-rv-park",
    "category": "private",
    "lat": 46.425574,
    "lng": -105.791162,
    "nearestTown": "miles-city",
    "nearestTownName": "Miles City",
    "address": "1294 US-12, Miles City, MT 59301",
    "phone": "\"(406) 232-3991\"",
    "website": "\"https://koa.com/campgrounds/miles-city/?utm_source=google&utm_medium=organic&utm_campaign=gbp\"",
    "rating": 4.2,
    "reviews": 173
  },
  {
    "name": "Outback Montana RV Park & Campground",
    "slug": "outback-montana-rv-park-and-campground",
    "category": "private",
    "lat": 48.0127785,
    "lng": -114.0557064,
    "nearestTown": "bigfork",
    "nearestTownName": "Bigfork",
    "address": "13772 Outback Ln, Bigfork, MT 59911",
    "phone": "\"(406) 837-3041\"",
    "website": "\"http://stateparks.mt.gov/wayfarers/\"",
    "rating": 3.9,
    "reviews": 151
  },
  {
    "name": "Sundance Campground",
    "slug": "sundance-campground",
    "category": "private",
    "lat": 48.4339477,
    "lng": -114.0442148,
    "nearestTown": "west-glacier",
    "nearestTownName": "West Glacier",
    "address": "10545 Hwy 2 E, Columbia Falls, MT 59912",
    "phone": "\"(406) 608-9653\"",
    "website": "\"http://www.timberwolfresort.com/\"",
    "rating": 4.3,
    "reviews": 151
  },
  {
    "name": "Montana Basecamp RV Park",
    "slug": "montana-basecamp-rv-park",
    "category": "private",
    "lat": 48.1539456,
    "lng": -114.293963,
    "nearestTown": "kalispell",
    "nearestTownName": "Kalispell",
    "address": "1000 Basecamp Dr, Kalispell, MT 59901",
    "phone": "\"(800) 968-5637\"",
    "website": "\"http://www.glaciercamping.com/\"",
    "rating": 4,
    "reviews": 148
  },
  {
    "name": "Philipsburg Bay Campground",
    "slug": "philipsburg-bay-campground",
    "category": "private",
    "lat": 46.2060891,
    "lng": -113.2886054,
    "nearestTown": "philipsburg",
    "nearestTownName": "Philipsburg",
    "address": "88, Pintler ranger District, Business Loop, Philipsburg, MT 59858",
    "phone": null,
    "website": "\"https://www.recreation.gov/camping/campgrounds/234010\"",
    "rating": 4.5,
    "reviews": 148
  },
  {
    "name": "Yellowrock Campground",
    "slug": "yellowrock-campground",
    "category": "private",
    "lat": 46.7487572,
    "lng": -114.1362484,
    "nearestTown": "missoula",
    "nearestTownName": "Missoula",
    "address": "9955 US-12, Lolo, MT 59847",
    "phone": "\"(406) 370-6633\"",
    "website": null,
    "rating": 4.4,
    "reviews": 130
  },
  {
    "name": "Birdland Bay RV Resort",
    "slug": "birdland-bay-rv-resort",
    "category": "private",
    "lat": 47.6253521,
    "lng": -115.3906393,
    "nearestTown": "thompson-falls",
    "nearestTownName": "Thompson Falls",
    "address": "2148 Blue Slide Rd, Thompson Falls, MT 59873",
    "phone": "\"(406) 827-3110\"",
    "website": "\"http://montanastateparks.reserveamerica.com/camping/Thompson_Falls/r/campgroundDetails.do?contractCode=MT&parkId=630117\"",
    "rating": 4.7,
    "reviews": 126
  },
  {
    "name": "Evergreen Campground",
    "slug": "evergreen-campground",
    "category": "private",
    "lat": 48.509139,
    "lng": -109.7889599,
    "nearestTown": "havre",
    "nearestTownName": "Havre",
    "address": "4850 72nd Ave W, Havre, MT 59501",
    "phone": null,
    "website": "\"https://www.usbr.gov/projects/index.php?id=128\"",
    "rating": 4.4,
    "reviews": 123
  },
  {
    "name": "Twin Bridges Bike Camp",
    "slug": "twin-bridges-bike-camp",
    "category": "private",
    "lat": 45.5448767,
    "lng": -112.3347083,
    "nearestTown": "twin-bridges",
    "nearestTownName": "Twin Bridges",
    "address": "2829 MT-41 S, Twin Bridges, MT 59754",
    "phone": null,
    "website": "\"https://www.fs.usda.gov/recarea/bdnf/recreation/recarea/?recid=5730\"",
    "rating": 4.5,
    "reviews": 122
  },
  {
    "name": "Missouri Headwaters Campground",
    "slug": "missouri-headwaters-campground",
    "category": "state",
    "lat": 45.917875,
    "lng": -111.5019943,
    "nearestTown": "three-forks",
    "nearestTownName": "Three Forks",
    "address": "Three Forks, MT 59752",
    "phone": "\"(406) 285-3610\"",
    "website": "\"http://stateparks.mt.gov/missouri-headwaters/\"",
    "rating": 4.2,
    "reviews": 116
  },
  {
    "name": "Small Towne RV Campground",
    "slug": "small-towne-rv-campground",
    "category": "rv",
    "lat": 46.7863006,
    "lng": -105.310028,
    "nearestTown": "terry",
    "nearestTownName": "Terry",
    "address": "803 1, 2 Towne Ave, Terry, MT 59349",
    "phone": "\"(406) 635-5520\"",
    "website": null,
    "rating": 4.6,
    "reviews": 114
  },
  {
    "name": "Holland Lake Campground",
    "slug": "holland-lake-campground",
    "category": "private",
    "lat": 47.4514404,
    "lng": -113.6087732,
    "nearestTown": "seeley-lake",
    "nearestTownName": "Seeley Lake",
    "address": "Condon, MT 59826",
    "phone": null,
    "website": null,
    "rating": 4.6,
    "reviews": 113
  },
  {
    "name": "Beaverhead Campground",
    "slug": "beaverhead-campground",
    "category": "private",
    "lat": 44.9969053,
    "lng": -112.855936,
    "nearestTown": "dillon",
    "nearestTownName": "Dillon",
    "address": "I-15, Dillon, MT 59725",
    "phone": "\"(406) 683-6472\"",
    "website": "\"http://southwestmt.com/listings/1988.htm\"",
    "rating": 4.6,
    "reviews": 108
  },
  {
    "name": "Lake Sheloole Campground And Rv Park",
    "slug": "lake-sheloole-campground-and-rv-park",
    "category": "private",
    "lat": 48.5220185,
    "lng": -111.8536083,
    "nearestTown": "shelby",
    "nearestTownName": "Shelby",
    "address": "1210 Oilfield Ave, Shelby, MT 59474",
    "phone": "\"(406) 434-5222\"",
    "website": "\"http://www.shelbymt.com/\"",
    "rating": 4.1,
    "reviews": 101
  },
  {
    "name": "Charles Waters Campground",
    "slug": "charles-waters-campground",
    "category": "private",
    "lat": 46.575266,
    "lng": -114.1408389,
    "nearestTown": "stevensville",
    "nearestTownName": "Stevensville",
    "address": "Highway 93, Florence, MT 59833",
    "phone": "\"(406) 777-7424\"",
    "website": "\"https://www.fs.usda.gov/recarea/bitterroot/recreation/natureviewing/recarea/?recid=60324&actid=62\"",
    "rating": 4.6,
    "reviews": 100
  },
  {
    "name": "Big Sky RV Park & Campground",
    "slug": "big-sky-rv-park-and-campground",
    "category": "private",
    "lat": 46.134757,
    "lng": -112.954066,
    "nearestTown": "anaconda",
    "nearestTownName": "Anaconda",
    "address": "350 Copper Sands Rd, Anaconda, MT 59711",
    "phone": "\"(406) 417-1050\"",
    "website": "\"http://coppercourtrvpark.com/\"",
    "rating": 4.4,
    "reviews": 97
  },
  {
    "name": "Rosebud East Campground",
    "slug": "rosebud-east-campground",
    "category": "private",
    "lat": 46.2747367,
    "lng": -106.6773772,
    "nearestTown": "forsyth",
    "nearestTownName": "Forsyth",
    "address": "660 15th Ave, Forsyth, MT 59327",
    "phone": "\"(406) 356-7982\"",
    "website": "\"https://www.visitmt.com/listings/general/private-campground/wagon-wheel-campground\"",
    "rating": 4.3,
    "reviews": 93
  },
  {
    "name": "Red Shale Campground",
    "slug": "red-shale-campground",
    "category": "private",
    "lat": 45.5679777,
    "lng": -106.1456913,
    "nearestTown": "colstrip",
    "nearestTownName": "Colstrip",
    "address": "Ashland, MT 59003",
    "phone": "\"(406) 784-2344\"",
    "website": "\"http://www.fs.usda.gov/recarea/custergallatin/recarea/?recid=60851\"",
    "rating": 4.7,
    "reviews": 92
  },
  {
    "name": "Wayside RV Park",
    "slug": "wayside-rv-park",
    "category": "private",
    "lat": 45.463267,
    "lng": -105.463795,
    "nearestTown": "broadus",
    "nearestTownName": "Broadus",
    "address": "19 Talcott Rd, Broadus, MT 59317",
    "phone": "\"(406) 923-8127\"",
    "website": "\"https://www.whitebuffalorvpark.com/\"",
    "rating": 4.6,
    "reviews": 92
  },
  {
    "name": "Alhambra RV Park",
    "slug": "alhambra-rv-park",
    "category": "private",
    "lat": 46.4550815,
    "lng": -111.9845361,
    "nearestTown": "helena",
    "nearestTownName": "Helena",
    "address": "515 State Highway 282, Clancy, MT 59634",
    "phone": "\"(406) 449-5201\"",
    "website": "\"https://www.fs.usda.gov/recarea/hlcnf/recarea/?recid=62843\"",
    "rating": 3.8,
    "reviews": 91
  },
  {
    "name": "Sleeping Wolf Campground",
    "slug": "sleeping-wolf-campground",
    "category": "private",
    "lat": 48.5619664,
    "lng": -113.0272954,
    "nearestTown": "browning",
    "nearestTownName": "Browning",
    "address": "56 Sleeping Wolf Ln, Browning, MT 59417",
    "phone": "\"(406) 338-4557\"",
    "website": "\"http://www.blackfeetcampgrounds.com/accommodation/buffalocalf/\"",
    "rating": 3.7,
    "reviews": 91
  },
  {
    "name": "Big Arm Campground",
    "slug": "big-arm-campground",
    "category": "state",
    "lat": 47.8069113,
    "lng": -114.3110485,
    "nearestTown": "polson",
    "nearestTownName": "Polson",
    "address": "45143 Big Arm State Pk Boat Launch, Big Arm, MT 59910",
    "phone": "\"(406) 752-5501\"",
    "website": "\"http://stateparks.mt.gov/big-arm/\"",
    "rating": 4.5,
    "reviews": 87
  },
  {
    "name": "Town Of Drummond Campground",
    "slug": "town-of-drummond-campground",
    "category": "private",
    "lat": 46.6604898,
    "lng": -113.1494644,
    "nearestTown": "drummond",
    "nearestTownName": "Drummond",
    "address": "18 Old Hwy 10A, Drummond, MT 59832",
    "phone": "\"(304) 890-8019\"",
    "website": "\"http://www.hiddenvalleycampgroundwv.com/\"",
    "rating": 4.1,
    "reviews": 86
  },
  {
    "name": "Barretts Park Campground",
    "slug": "barretts-park-campground",
    "category": "private",
    "lat": 45.1288212,
    "lng": -112.7414994,
    "nearestTown": "dillon",
    "nearestTownName": "Dillon",
    "address": "Dillon, MT 59725",
    "phone": "\"(406) 596-5021\"",
    "website": "\"https://countrysidemt.com/?utm_source=google-gmb-maps&utm_medium=gmb-website-button&utm_campaign=locl.io&utm_content=b57c3589-6e51-472e-abe6-27351a335d5e\"",
    "rating": 4.7,
    "reviews": 85
  },
  {
    "name": "Sunset RV Park Montana",
    "slug": "sunset-rv-park-montana",
    "category": "private",
    "lat": 48.632856,
    "lng": -112.3441781,
    "nearestTown": "cut-bank",
    "nearestTownName": "Cut Bank",
    "address": "401 4th Ave SW, Cut Bank, MT 59427",
    "phone": "\"(406) 548-2266\"",
    "website": "\"http://www.glaciermistrv.com/\"",
    "rating": 4.5,
    "reviews": 83
  },
  {
    "name": "Red Mountain Campground",
    "slug": "red-mountain-campground",
    "category": "private",
    "lat": 45.6119696,
    "lng": -111.5692526,
    "nearestTown": "three-forks",
    "nearestTownName": "Three Forks",
    "address": "Manhattan, MT 59741",
    "phone": null,
    "website": null,
    "rating": 4.5,
    "reviews": 80
  },
  {
    "name": "Kiwanis Club Campground",
    "slug": "kiwanis-club-campground",
    "category": "private",
    "lat": 47.0551543,
    "lng": -109.460688,
    "nearestTown": "lewistown",
    "nearestTownName": "Lewistown",
    "address": "80398 US-87, Lewistown, MT 59457",
    "phone": null,
    "website": null,
    "rating": 4.7,
    "reviews": 79
  },
  {
    "name": "Livingston Campground",
    "slug": "livingston-campground",
    "category": "private",
    "lat": 45.646749,
    "lng": -110.5758646,
    "nearestTown": "livingston",
    "nearestTownName": "Livingston",
    "address": "11 Rogers Ln, Livingston, MT 59047",
    "phone": "\"(406) 223-9836\"",
    "website": "\"http://www.elkrivercrossing.com/\"",
    "rating": 3.2,
    "reviews": 79
  },
  {
    "name": "Wagon Wheel Campground",
    "slug": "wagon-wheel-campground",
    "category": "private",
    "lat": 46.2625695,
    "lng": -106.658919,
    "nearestTown": "forsyth",
    "nearestTownName": "Forsyth",
    "address": "58 Slaughterhouse Creek Rd, Forsyth, MT 59327",
    "phone": null,
    "website": null,
    "rating": 4.3,
    "reviews": 76
  },
  {
    "name": "Mission Meadows Camping & RV Park",
    "slug": "mission-meadows-camping-and-rv-park",
    "category": "private",
    "lat": 47.566745,
    "lng": -114.1247403,
    "nearestTown": "ronan",
    "nearestTownName": "Ronan",
    "address": "44457 Mission Meadow Dr, Ronan, MT 59864",
    "phone": "\"(406) 676-2267\"",
    "website": "\"https://www.diamondsrvpark.com/\"",
    "rating": 3.8,
    "reviews": 73
  },
  {
    "name": "River Point Campground",
    "slug": "river-point-campground",
    "category": "private",
    "lat": 47.1869,
    "lng": -113.5141299,
    "nearestTown": "seeley-lake",
    "nearestTownName": "Seeley Lake",
    "address": "Boy Scout Rd, Seeley Lake, MT 59868",
    "phone": "\"(406) 677-2233\"",
    "website": "\"http://www.fs.usda.gov/recarea/lolo/recarea/?recid=10318\"",
    "rating": 4.3,
    "reviews": 72
  },
  {
    "name": "West Shore Campground",
    "slug": "west-shore-campground",
    "category": "state",
    "lat": 47.9503856,
    "lng": -114.1884613,
    "nearestTown": "bigfork",
    "nearestTownName": "Bigfork",
    "address": "17768 U.S. 93 S, Lakeside, MT 59922",
    "phone": "\"(406) 844-3044\"",
    "website": "\"http://stateparks.mt.gov/west-shore/\"",
    "rating": 4.6,
    "reviews": 68
  },
  {
    "name": "Benton RV Park & Campground",
    "slug": "benton-rv-park-and-campground",
    "category": "private",
    "lat": 47.8286702,
    "lng": -110.6626817,
    "nearestTown": "fort-benton",
    "nearestTownName": "Fort Benton",
    "address": "2410 Chouteau St, Fort Benton, MT 59442",
    "phone": "\"(406) 622-5505\"",
    "website": "\"http://chocofair.com/\"",
    "rating": 4.2,
    "reviews": 68
  },
  {
    "name": "Firemans Park Campground",
    "slug": "firemans-park-campground",
    "category": "private",
    "lat": 48.3910483,
    "lng": -115.5627602,
    "nearestTown": "libby",
    "nearestTownName": "Libby",
    "address": "Libby, MT 59923",
    "phone": "\"(406) 293-8395\"",
    "website": "\"https://woodlandrvpark.com/\"",
    "rating": 4.4,
    "reviews": 67
  },
  {
    "name": "Holter Dam Campground - U.S. Bureau of Land Management",
    "slug": "holter-dam-campground-u-s-bureau-of-land-management",
    "category": "public",
    "lat": 46.9948535,
    "lng": -112.0118712,
    "nearestTown": "helena",
    "nearestTownName": "Helena",
    "address": "1390 Holter Dam Rd, Wolf Creek, MT 59648",
    "phone": "\"(406) 235-4314\"",
    "website": "\"https://www.blm.gov/visit/holter-lake-campground\"",
    "rating": 4.4,
    "reviews": 65
  },
  {
    "name": "Beaver Valley Haven RV & Cabins",
    "slug": "beaver-valley-haven-rv-and-cabins",
    "category": "private",
    "lat": 46.98104,
    "lng": -104.19015,
    "nearestTown": "wibaux",
    "nearestTownName": "Wibaux",
    "address": "7941 MT-7, Wibaux, MT 59353",
    "phone": "\"(704) 843-3919\"",
    "website": null,
    "rating": 4,
    "reviews": 64
  },
  {
    "name": "Whitefish Campground",
    "slug": "whitefish-campground",
    "category": "private",
    "lat": 48.4248828,
    "lng": -114.3720492,
    "nearestTown": "whitefish",
    "nearestTownName": "Whitefish",
    "address": "1615 W Lakeshore Dr, Whitefish, MT 59937",
    "phone": "\"(406) 862-7275\"",
    "website": "\"http://whitefishrvpark.com/\"",
    "rating": 3.4,
    "reviews": 64
  },
  {
    "name": "Fresno Beach Campground",
    "slug": "fresno-beach-campground",
    "category": "private",
    "lat": 48.5959552,
    "lng": -109.9568639,
    "nearestTown": "havre",
    "nearestTownName": "Havre",
    "address": "Havre, MT 59501",
    "phone": null,
    "website": "\"https://fwp.mt.gov/fish/fishing-access\"",
    "rating": 4.6,
    "reviews": 63
  },
  {
    "name": "Hellgate Campground",
    "slug": "hellgate-campground",
    "category": "private",
    "lat": 46.6118805,
    "lng": -111.6533091,
    "nearestTown": "east-helena",
    "nearestTownName": "East Helena",
    "address": "Helena, MT 59602, United States",
    "phone": "\"+1 406-475-3921\"",
    "website": "\"http://www.recreation.gov/camping/riverside-campground-and-group-use-area/r/campgroundDetails.do?contractCode=NRSO&parkId=100030\"",
    "rating": 4.3,
    "reviews": 63
  },
  {
    "name": "Divide Bridge Campground",
    "slug": "divide-bridge-campground",
    "category": "private",
    "lat": 45.7531517,
    "lng": -112.7746759,
    "nearestTown": "butte",
    "nearestTownName": "Butte",
    "address": "74916 MT-43, Divide, MT 59727",
    "phone": null,
    "website": null,
    "rating": 4.7,
    "reviews": 60
  },
  {
    "name": "Blodgett Campground",
    "slug": "blodgett-campground",
    "category": "private",
    "lat": 46.269922,
    "lng": -114.244263,
    "nearestTown": "pinesdale",
    "nearestTownName": "Pinesdale",
    "address": "Blodgett Camp Rd, Hamilton, MT 59840",
    "phone": "\"(406) 363-3744\"",
    "website": "\"http://www.blackrabbitrv.com/\"",
    "rating": 4.4,
    "reviews": 57
  },
  {
    "name": "Fort Peck Campground",
    "slug": "fort-peck-campground",
    "category": "private",
    "lat": 48.0066863,
    "lng": -106.4279682,
    "nearestTown": "fort-peck",
    "nearestTownName": "Fort Peck",
    "address": "Nashua, MT 59248",
    "phone": null,
    "website": "\"https://myfwp.mt.gov/fishMT/fas/39754329\"",
    "rating": 4.6,
    "reviews": 53
  },
  {
    "name": "Trafton Park Campground",
    "slug": "trafton-park-campground",
    "category": "private",
    "lat": 48.3634576,
    "lng": -107.8728387,
    "nearestTown": "malta",
    "nearestTownName": "Malta",
    "address": "Malta, MT 59538",
    "phone": "\"(406) 654-1302\"",
    "website": "\"https://www.facebook.com/Edgewater-Inn-and-RV-Park-100810755888608/\"",
    "rating": 4.3,
    "reviews": 50
  },
  {
    "name": "Jocko Hollow Campground",
    "slug": "jocko-hollow-campground",
    "category": "private",
    "lat": 47.1773454,
    "lng": -114.0978134,
    "nearestTown": "st-ignatius",
    "nearestTownName": "St. Ignatius",
    "address": "71370 Campground Ln, Arlee, MT 59821",
    "phone": null,
    "website": null,
    "rating": 4,
    "reviews": 50
  },
  {
    "name": "Galena Gulch Campground",
    "slug": "galena-gulch-campground",
    "category": "private",
    "lat": 46.2540671,
    "lng": -112.1827506,
    "nearestTown": "boulder",
    "nearestTownName": "Boulder",
    "address": "Boulder, MT 59632",
    "phone": "\"(406) 449-5201\"",
    "website": "\"https://www.fs.usda.gov/recarea/hlcnf/recarea/?recid=62843\"",
    "rating": 4.4,
    "reviews": 49
  },
  {
    "name": "Bull River Campground, Kootenai National Forest",
    "slug": "bull-river-campground-kootenai-national-forest",
    "category": "public",
    "lat": 48.0289378,
    "lng": -115.8419008,
    "nearestTown": "libby",
    "nearestTownName": "Libby",
    "address": "1091-1121 MT-200, Noxon, MT 59853",
    "phone": "\"(406) 847-2291\"",
    "website": "\"https://www.tworiversrvcampground.com/\"",
    "rating": 4.3,
    "reviews": 49
  },
  {
    "name": "Horse Creek RV & Trailer Park",
    "slug": "horse-creek-rv-and-trailer-park",
    "category": "rv",
    "lat": 47.4241256,
    "lng": -105.5836181,
    "nearestTown": "circle",
    "nearestTownName": "Circle",
    "address": "112 B Dr, Circle, MT 59215",
    "phone": "\"(406) 377-4156\"",
    "website": null,
    "rating": 4.1,
    "reviews": 46
  },
  {
    "name": "Moose Creek Campground",
    "slug": "moose-creek-campground",
    "category": "private",
    "lat": 46.5250655,
    "lng": -112.2567786,
    "nearestTown": "helena",
    "nearestTownName": "Helena",
    "address": "Rimini Rd, Helena, MT 59601",
    "phone": null,
    "website": "\"https://www.mtbcity.net/\"",
    "rating": 4.3,
    "reviews": 45
  },
  {
    "name": "Bitterroot Valley Rv And Campground",
    "slug": "bitterroot-valley-rv-and-campground",
    "category": "private",
    "lat": 46.135204,
    "lng": -114.176912,
    "nearestTown": "darby",
    "nearestTownName": "Darby",
    "address": "1744 US-93, Hamilton, MT 59840",
    "phone": null,
    "website": "\"https://www.fs.usda.gov/recarea/bitterroot/recreation/camping-cabins/recarea/?recid=60264&actid=31\"",
    "rating": 3.2,
    "reviews": 45
  },
  {
    "name": "Grasshopper Campground and Picnic Area",
    "slug": "grasshopper-campground-and-picnic-area",
    "category": "private",
    "lat": 45.4520204,
    "lng": -113.119831,
    "nearestTown": "dillon",
    "nearestTownName": "Dillon",
    "address": "Pioneer Mountains Scenic By-Way, Wise River, MT 59762",
    "phone": "\"(406) 689-3243\"",
    "website": "\"http://www.fs.usda.gov/recarea/bdnf/recarea/?recid=5689\"",
    "rating": 4.6,
    "reviews": 44
  },
  {
    "name": "Glacier Elkhorn Cabins and Campground",
    "slug": "glacier-elkhorn-cabins-and-campground",
    "category": "private",
    "lat": 48.9127536,
    "lng": -113.4355366,
    "nearestTown": "browning",
    "nearestTownName": "Browning",
    "address": "4379 US-89 w, Babb, MT 59411",
    "phone": "\"(406) 338-4557\"",
    "website": "\"https://blackfeetcampgrounds.com/accommodation/duck-lake/\"",
    "rating": 4.2,
    "reviews": 44
  },
  {
    "name": "Green Valley Campground",
    "slug": "green-valley-campground",
    "category": "private",
    "lat": 47.1211576,
    "lng": -104.7276784,
    "nearestTown": "glendive",
    "nearestTownName": "Glendive",
    "address": "124 Green Valley Ln, Glendive, MT 59330",
    "phone": "\"(704) 843-3919\"",
    "website": null,
    "rating": 2.9,
    "reviews": 40
  },
  {
    "name": "Spring Gulch Campground",
    "slug": "spring-gulch-campground",
    "category": "private",
    "lat": 45.8587387,
    "lng": -114.0233457,
    "nearestTown": "darby",
    "nearestTownName": "Darby",
    "address": "US-93, Hamilton, MT 59840",
    "phone": null,
    "website": "\"https://www.fs.usda.gov/generalinfo/bitterroot/recreation/camping-cabins/generalinfo/?groupid=12652&recid=12340\"",
    "rating": 4.6,
    "reviews": 39
  },
  {
    "name": "Fairy Lake Campground",
    "slug": "fairy-lake-campground",
    "category": "private",
    "lat": 45.9072759,
    "lng": -110.9642668,
    "nearestTown": "belgrade",
    "nearestTownName": "Belgrade",
    "address": "Wilsall, MT 59086",
    "phone": "\"(406) 222-1892\"",
    "website": "\"https://www.fs.usda.gov/detail/custergallatin/about-forest/offices\"",
    "rating": 4.4,
    "reviews": 39
  },
  {
    "name": "Coalbanks Campground",
    "slug": "coalbanks-campground",
    "category": "private",
    "lat": 48.0320354,
    "lng": -110.2358319,
    "nearestTown": "big-sandy",
    "nearestTownName": "Big Sandy",
    "address": "5901 Virgelle Ferry Rd N, Loma, MT 59460",
    "phone": null,
    "website": "\"https://www.blm.gov/programs/national-conservation-lands/montana-dakotas/upper-missouri-river-breaks\"",
    "rating": 4.6,
    "reviews": 37
  },
  {
    "name": "Tiny Town Campground",
    "slug": "tiny-town-campground",
    "category": "private",
    "lat": 45.370495,
    "lng": -110.7336182,
    "nearestTown": "livingston",
    "nearestTownName": "Livingston",
    "address": "9 Counts Ln, Emigrant, MT 59027",
    "phone": "\"(406) 224-1599\"",
    "website": "\"https://www.yellowstonedreamincamp.com/\"",
    "rating": 4.9,
    "reviews": 37
  },
  {
    "name": "Cascade Creek Campground",
    "slug": "cascade-creek-campground",
    "category": "private",
    "lat": 47.3055073,
    "lng": -114.8247695,
    "nearestTown": "superior",
    "nearestTownName": "Superior",
    "address": "MT-135, Plains, MT 59859",
    "phone": null,
    "website": null,
    "rating": 4.4,
    "reviews": 35
  },
  {
    "name": "Devil Creek Campground",
    "slug": "devil-creek-campground",
    "category": "private",
    "lat": 48.2513501,
    "lng": -113.4639876,
    "nearestTown": "east-glacier",
    "nearestTownName": "East Glacier",
    "address": "15485 US-2, Essex, MT 59916",
    "phone": "\"(406) 226-4479\"",
    "website": "\"http://www.glaciermeadowrvpark.com/\"",
    "rating": 4.7,
    "reviews": 35
  },
  {
    "name": "Thain Creek Campground",
    "slug": "thain-creek-campground",
    "category": "private",
    "lat": 47.4755556,
    "lng": -110.5852778,
    "nearestTown": "belt",
    "nearestTownName": "Belt",
    "address": "Forest Road 8840, Highwood, MT 59450",
    "phone": null,
    "website": "\"http://www.fs.usda.gov/recarea/lcnf/recarea/?recid=61546\"",
    "rating": 4.4,
    "reviews": 35
  },
  {
    "name": "Cromwell Dixon Campground",
    "slug": "cromwell-dixon-campground",
    "category": "private",
    "lat": 46.5561682,
    "lng": -112.315871,
    "nearestTown": "helena",
    "nearestTownName": "Helena",
    "address": "Helena, MT 59601",
    "phone": null,
    "website": "\"https://www.recreation.gov/camping/campgrounds/234010\"",
    "rating": 4.6,
    "reviews": 34
  },
  {
    "name": "Homestead RV",
    "slug": "homestead-rv",
    "category": "rv",
    "lat": 48.0891961,
    "lng": -105.6731421,
    "nearestTown": "wolf-point",
    "nearestTownName": "Wolf Point",
    "address": "7518 US-2, Wolf Point, MT 59201",
    "phone": "\"(816) 612-3434\"",
    "website": "\"http://thecampgroundkc.com/\"",
    "rating": 3.3,
    "reviews": 34
  },
  {
    "name": "Cow Bells Campground",
    "slug": "cow-bells-campground",
    "category": "private",
    "lat": 46.4399145,
    "lng": -108.5299617,
    "nearestTown": "roundup",
    "nearestTownName": "Roundup",
    "address": "Roundup, MT 59072",
    "phone": "\"(406) 259-0878\"",
    "website": "\"https://yellowstoneriverrvpark.com/\"",
    "rating": 4.3,
    "reviews": 34
  },
  {
    "name": "Sanford Park Campground",
    "slug": "sanford-park-campground",
    "category": "private",
    "lat": 48.3113861,
    "lng": -111.0882461,
    "nearestTown": "chester",
    "nearestTownName": "Chester",
    "address": "Chester, MT 59522",
    "phone": "\"(406) 759-5637\"",
    "website": "\"https://m.facebook.com/pages/category/Fishing-Spot/Rus-Tiber-marina-377088035741123/\"",
    "rating": 4.7,
    "reviews": 33
  },
  {
    "name": "American Legion Memorial Park",
    "slug": "american-legion-memorial-park",
    "category": "private",
    "lat": 45.6184416,
    "lng": -113.4590966,
    "nearestTown": "deer-lodge",
    "nearestTownName": "Deer Lodge",
    "address": "26650 MT-43, Wisdom, MT 59761",
    "phone": "\"(406) 689-3243\"",
    "website": "\"http://www.fs.usda.gov/recarea/bdnf/recarea/?recid=5690\"",
    "rating": 4.8,
    "reviews": 32
  },
  {
    "name": "Bluebird Campground",
    "slug": "bluebird-campground",
    "category": "private",
    "lat": 46.3275491,
    "lng": -109.4291946,
    "nearestTown": "ryegate",
    "nearestTownName": "Ryegate",
    "address": "Ryegate, MT 59074",
    "phone": "\"(406) 259-0878\"",
    "website": "\"https://yellowstoneriverrvpark.com/\"",
    "rating": 4.1,
    "reviews": 32
  },
  {
    "name": "Big Eddy Campground",
    "slug": "big-eddy-campground",
    "category": "private",
    "lat": 48.06611,
    "lng": -115.92463,
    "nearestTown": "troy",
    "nearestTownName": "Troy",
    "address": "MT-200, Sandpoint, ID 83864",
    "phone": "\"(406) 752-5501\"",
    "website": "\"http://fwp.mt.gov/\"",
    "rating": 4.6,
    "reviews": 31
  },
  {
    "name": "Crystal Lake Campground",
    "slug": "crystal-lake-campground",
    "category": "private",
    "lat": 46.7941052,
    "lng": -109.5110964,
    "nearestTown": "judith-gap",
    "nearestTownName": "Judith Gap",
    "address": "21970 Crystal Lake Rd, Moore, MT 59464",
    "phone": "\"(406) 632-4391\"",
    "website": "\"http://www.fs.usda.gov/recarea/lcnf/recreation/recarea/?recid=61474&actid=29\"",
    "rating": 4.5,
    "reviews": 31
  },
  {
    "name": "Ackley Lake West Campground",
    "slug": "ackley-lake-west-campground",
    "category": "private",
    "lat": 46.9556429,
    "lng": -109.9435775,
    "nearestTown": "hobson",
    "nearestTownName": "Hobson",
    "address": "989 Ackley Lake Rd, Hobson, MT 59452",
    "phone": "\"(615) 883-8559\"",
    "website": "\"https://www.tworiverscampground.com/\"",
    "rating": 4.5,
    "reviews": 31
  },
  {
    "name": "Trails West Campground",
    "slug": "trails-west-campground",
    "category": "private",
    "lat": 48.2198375,
    "lng": -106.6451832,
    "nearestTown": "glasgow",
    "nearestTownName": "Glasgow",
    "address": "37 Skylark Rd, Glasgow, MT 59230",
    "phone": "\"(406) 228-2769\"",
    "website": null,
    "rating": 3.1,
    "reviews": 30
  },
  {
    "name": "Willow Creek Campground",
    "slug": "willow-creek-campground-1",
    "category": "private",
    "lat": 47.456808,
    "lng": -114.1528183,
    "nearestTown": "ronan",
    "nearestTownName": "Ronan",
    "address": "54624 MT-212, Charlo, MT 59824",
    "phone": null,
    "website": null,
    "rating": 4.9,
    "reviews": 29
  },
  {
    "name": "Eddies Corner Incorporated Campground",
    "slug": "eddies-corner-incorporated-campground",
    "category": "private",
    "lat": 46.9826166,
    "lng": -109.744663,
    "nearestTown": "moore",
    "nearestTownName": "Moore",
    "address": "65000 US-87, Moore, MT 59464",
    "phone": null,
    "website": "\"https://fwp.mt.gov/stateparks/ackley-lake-state-park\"",
    "rating": 4.5,
    "reviews": 28
  },
  {
    "name": "Springs Campground",
    "slug": "springs-campground",
    "category": "private",
    "lat": 46.5480317,
    "lng": -110.9140221,
    "nearestTown": "white-sulphur-springs",
    "nearestTownName": "White Sulphur Springs",
    "address": "1004 W Main St, White Sulphur Springs, MT 59645",
    "phone": null,
    "website": "\"https://www.fs.usda.gov/recarea/hlcnf/recarea/?recid=61552\"",
    "rating": 4.2,
    "reviews": 26
  },
  {
    "name": "City Park Campground",
    "slug": "city-park-campground",
    "category": "private",
    "lat": 45.2959637,
    "lng": -108.9108889,
    "nearestTown": "bridger",
    "nearestTownName": "Bridger",
    "address": "306 E Broadway Ave, Bridger, MT 59014",
    "phone": "\"(406) 446-2103\"",
    "website": "\"http://www.fs.usda.gov/recarea/custergallatin/recreation/recarea/?recid=60871&actid=29\"",
    "rating": 4.3,
    "reviews": 26
  },
  {
    "name": "Manuel Lisa, Custer, Montana",
    "slug": "manuel-lisa-custer-montana",
    "category": "private",
    "lat": 46.1441996,
    "lng": -107.4648853,
    "nearestTown": "hysham",
    "nearestTownName": "Hysham",
    "address": "Custer, MT 59024",
    "phone": "\"(406) 259-0878\"",
    "website": "\"https://yellowstoneriverrvpark.com/\"",
    "rating": 4.3,
    "reviews": 24
  },
  {
    "name": "Trout Creek Campground",
    "slug": "trout-creek-campground",
    "category": "private",
    "lat": 47.8616,
    "lng": -115.630727,
    "nearestTown": "thompson-falls",
    "nearestTownName": "Thompson Falls",
    "address": "Trout Creek, MT 59874",
    "phone": null,
    "website": null,
    "rating": 4.5,
    "reviews": 24
  },
  {
    "name": "Culbertson RV Court",
    "slug": "culbertson-rv-court",
    "category": "private",
    "lat": 48.165427,
    "lng": -104.519505,
    "nearestTown": "culbertson",
    "nearestTownName": "Culbertson",
    "address": "5747 Rd 1022, Culbertson, MT 59218",
    "phone": null,
    "website": null,
    "rating": 4.4,
    "reviews": 23
  },
  {
    "name": "Spring Creek Campground",
    "slug": "spring-creek-campground",
    "category": "private",
    "lat": 46.5863889,
    "lng": -110.4666667,
    "nearestTown": "white-sulphur-springs",
    "nearestTownName": "White Sulphur Springs",
    "address": "Martinsdale, MT 59053",
    "phone": "\"(406) 791-7700\"",
    "website": "\"http://www.fs.usda.gov/recarea/lcnf/recarea/?recid=61584\"",
    "rating": 4.5,
    "reviews": 21
  },
  {
    "name": "North Dickey Lake Campground",
    "slug": "north-dickey-lake-campground",
    "category": "private",
    "lat": 48.7194972,
    "lng": -114.8340709,
    "nearestTown": "eureka",
    "nearestTownName": "Eureka",
    "address": "Trego, MT 59923",
    "phone": "\"(406) 752-5501\"",
    "website": "\"http://fwp.mt.gov/\"",
    "rating": 4.5,
    "reviews": 21
  },
  {
    "name": "Pigeon Creek Campground",
    "slug": "pigeon-creek-campground",
    "category": "private",
    "lat": 45.8007597,
    "lng": -112.3997324,
    "nearestTown": "whitehall",
    "nearestTownName": "Whitehall",
    "address": "Butte, MT 59701",
    "phone": "\"(406) 287-3580\"",
    "website": null,
    "rating": 3.9,
    "reviews": 20
  },
  {
    "name": "Upper Stillwater Campground",
    "slug": "upper-stillwater-campground",
    "category": "private",
    "lat": 48.6032988,
    "lng": -114.6562577,
    "nearestTown": "whitefish",
    "nearestTownName": "Whitefish",
    "address": "Olney, MT 59927",
    "phone": null,
    "website": null,
    "rating": 4.5,
    "reviews": 20
  },
  {
    "name": "Glen Campground",
    "slug": "glen-campground",
    "category": "private",
    "lat": 45.4671536,
    "lng": -112.6670128,
    "nearestTown": "twin-bridges",
    "nearestTownName": "Twin Bridges",
    "address": "Glen, MT 59732",
    "phone": "\"(909) 233-9503\"",
    "website": null,
    "rating": 4.4,
    "reviews": 20
  },
  {
    "name": "Wood Bottom Campground",
    "slug": "wood-bottom-campground",
    "category": "private",
    "lat": 47.9113534,
    "lng": -110.4932476,
    "nearestTown": "fort-benton",
    "nearestTownName": "Fort Benton",
    "address": "Loma, MT 59460",
    "phone": "\"(406) 622-5015\"",
    "website": "\"https://montana-rv-park.com/\"",
    "rating": 4.2,
    "reviews": 19
  },
  {
    "name": "Pondera RV Resort",
    "slug": "pondera-rv-resort",
    "category": "rv",
    "lat": 48.1650655,
    "lng": -111.9516596,
    "nearestTown": "conrad",
    "nearestTownName": "Conrad",
    "address": "713 S Maryland St, Conrad, MT 59425, United States",
    "phone": "\"+1 406-271-2263\"",
    "website": "\"https://ponderarvresort.com/\"",
    "rating": 4.7,
    "reviews": 18
  },
  {
    "name": "Aspen Campground",
    "slug": "aspen-campground",
    "category": "private",
    "lat": 46.9930175,
    "lng": -110.7682727,
    "nearestTown": "neihart",
    "nearestTownName": "Neihart",
    "address": "Neihart, MT 59465",
    "phone": null,
    "website": "\"http://www.fs.usda.gov/recarea/lcnf/recarea/?recid=61546\"",
    "rating": 3.9,
    "reviews": 16
  },
  {
    "name": "Grasshopper Campground",
    "slug": "grasshopper-campground",
    "category": "private",
    "lat": 46.5441138,
    "lng": -110.7485375,
    "nearestTown": "white-sulphur-springs",
    "nearestTownName": "White Sulphur Springs",
    "address": "White Sulphur Springs, MT 59645",
    "phone": "\"(406) 547-3982\"",
    "website": null,
    "rating": 4.4,
    "reviews": 16
  },
  {
    "name": "Wagons West Campground",
    "slug": "wagons-west-campground",
    "category": "private",
    "lat": 47.4960547,
    "lng": -112.3875482,
    "nearestTown": "fairfield",
    "nearestTownName": "Fairfield",
    "address": "956 N US-287, Augusta, MT 59410, United States",
    "phone": "\"+1 406-562-3247\"",
    "website": "\"https://www.fs.usda.gov/\"",
    "rating": 4.6,
    "reviews": 15
  },
  {
    "name": "River Junction Campground",
    "slug": "river-junction-campground",
    "category": "private",
    "lat": 46.983701,
    "lng": -113.1301474,
    "nearestTown": "seeley-lake",
    "nearestTownName": "Seeley Lake",
    "address": "Ovando, MT 59854",
    "phone": null,
    "website": null,
    "rating": 3.4,
    "reviews": 13
  },
  {
    "name": "Bolster Dam Campgrounds",
    "slug": "bolster-dam-campgrounds",
    "category": "private",
    "lat": 48.7844724,
    "lng": -104.5524571,
    "nearestTown": "plentywood",
    "nearestTownName": "Plentywood",
    "address": "Plentywood, MT 59254",
    "phone": "\"(406) 808-7117\"",
    "website": "\"https://fwp.mt.gov/stateparks/brush-lake\"",
    "rating": 4.3,
    "reviews": 13
  },
  {
    "name": "US Forest Services Ranger Station",
    "slug": "us-forest-services-ranger-station",
    "category": "public",
    "lat": 46.5131138,
    "lng": -114.091474,
    "nearestTown": "stevensville",
    "nearestTownName": "Stevensville",
    "address": "88 Main St, Stevensville, MT 59870",
    "phone": "\"(406) 777-5461\"",
    "website": "\"https://www.fs.usda.gov/recarea/bitterroot/recarea/?recid=60312\"",
    "rating": 4.2,
    "reviews": 13
  },
  {
    "name": "Lowry Bridge Campground",
    "slug": "lowry-bridge-campground",
    "category": "private",
    "lat": 47.513156,
    "lng": -112.007984,
    "nearestTown": "fairfield",
    "nearestTownName": "Fairfield",
    "address": "Lowrey Rd, Fairfield, MT 59436",
    "phone": "\"(406) 727-3191\"",
    "website": "\"https://koa.com/campgrounds/great-falls/?utm_source=google&utm_medium=organic&utm_campaign=gbp\"",
    "rating": 4.6,
    "reviews": 12
  },
  {
    "name": "Montana Gulch Campground",
    "slug": "montana-gulch-campground",
    "category": "private",
    "lat": 47.8983269,
    "lng": -108.632653,
    "nearestTown": "dodson",
    "nearestTownName": "Dodson",
    "address": "Zortman, MT 59546",
    "phone": null,
    "website": "https://www.blm.gov/visit/camp-creek-campground",
    "rating": 4.5,
    "reviews": 11
  },
  {
    "name": "Lake Frances Campground",
    "slug": "lake-frances-campground",
    "category": "private",
    "lat": 48.3014074,
    "lng": -112.2614681,
    "nearestTown": "valier",
    "nearestTownName": "Valier",
    "address": "8P2Q+HC, Conrad, MT 59425",
    "phone": "\"(406) 279-3721\"",
    "website": null,
    "rating": 4.3,
    "reviews": 11
  },
  {
    "name": "Bratten Fishing Access Site (FAS)",
    "slug": "bratten-fishing-access-site-fas",
    "category": "private",
    "lat": 45.71802,
    "lng": -109.6325998,
    "nearestTown": "big-timber",
    "nearestTownName": "Big Timber",
    "address": "Greycliff, MT 59033",
    "phone": null,
    "website": null,
    "rating": 4.6,
    "reviews": 11
  },
  {
    "name": "Monture Campground",
    "slug": "monture-campground",
    "category": "private",
    "lat": 47.0368215,
    "lng": -113.2197423,
    "nearestTown": "seeley-lake",
    "nearestTownName": "Seeley Lake",
    "address": "Ovando, MT 59854",
    "phone": null,
    "website": null,
    "rating": 4.5,
    "reviews": 10
  },
  {
    "name": "Green Acres Campground",
    "slug": "green-acres-campground",
    "category": "private",
    "lat": 47.6479116,
    "lng": -104.2057472,
    "nearestTown": "sidney",
    "nearestTownName": "Sidney",
    "address": "12019 MT-16, Sidney, MT 59270",
    "phone": "\"(406) 526-3224\"",
    "website": "\"https://www.recreation.gov/camping/campgrounds/233489\"",
    "rating": 3.9,
    "reviews": 7
  },
  {
    "name": "East Creek Campground",
    "slug": "east-creek-campground",
    "category": "private",
    "lat": 44.5635226,
    "lng": -112.6605623,
    "nearestTown": "lima",
    "nearestTownName": "Lima",
    "address": "Lima, MT 59739",
    "phone": "\"(406) 276-3535\"",
    "website": null,
    "rating": 4.7,
    "reviews": 7
  },
  {
    "name": "Willow Creek Campground",
    "slug": "willow-creek-campground",
    "category": "private",
    "lat": 48.3987955,
    "lng": -111.2272791,
    "nearestTown": "chester",
    "nearestTownName": "Chester",
    "address": "Willow Creek Rd, Lothair, MT 59461",
    "phone": "\"(406) 432-2352\"",
    "website": null,
    "rating": 4.8,
    "reviews": 6
  },
  {
    "name": "Ravalli Store and Days Rest Campground",
    "slug": "ravalli-store-and-days-rest-campground",
    "category": "private",
    "lat": 47.2771359,
    "lng": -114.1805981,
    "nearestTown": "st-ignatius",
    "nearestTownName": "St. Ignatius",
    "address": "Ravalli, MT 59863",
    "phone": null,
    "website": null,
    "rating": 2.7,
    "reviews": 6
  },
  {
    "name": "Campground Fort Buford",
    "slug": "campground-fort-buford",
    "category": "private",
    "lat": 47.9856691,
    "lng": -104.0018053,
    "nearestTown": "fairview",
    "nearestTownName": "Fairview",
    "address": "15365 39th Ln NW, Williston, ND 58801",
    "phone": null,
    "website": "\"https://www.recreation.gov/camping/campgrounds/10147280\"",
    "rating": 4.3,
    "reviews": 6
  },
  {
    "name": "South Campground",
    "slug": "south-campground",
    "category": "private",
    "lat": 48.7071873,
    "lng": -114.8134878,
    "nearestTown": "eureka",
    "nearestTownName": "Eureka",
    "address": "Libby, MT 59923",
    "phone": null,
    "website": "\"https://www.recreation.gov/camping/campgrounds/233778\"",
    "rating": 4.8,
    "reviews": 6
  },
  {
    "name": "US Forestry Department",
    "slug": "us-forestry-department",
    "category": "private",
    "lat": 47.0761672,
    "lng": -110.1407256,
    "nearestTown": "stanford",
    "nearestTownName": "Stanford",
    "address": "109 Central Ave, Stanford, MT 59479",
    "phone": "\"(406) 566-2363\"",
    "website": "\"https://www.russellcountry.com/double-b-rv-park.html\"",
    "rating": 4.5,
    "reviews": 4
  },
  {
    "name": "Cottonwood Campground",
    "slug": "cottonwood-campground",
    "category": "private",
    "lat": 46.3485801,
    "lng": -111.5372744,
    "nearestTown": "townsend",
    "nearestTownName": "Townsend",
    "address": "Alder, MT 59710",
    "phone": null,
    "website": "\"https://www.recreation.gov/camping/campgrounds/249998\"",
    "rating": 3,
    "reviews": 3
  },
  {
    "name": "The Sanctuary Campground",
    "slug": "the-sanctuary-campground",
    "category": "private",
    "lat": 47.226666,
    "lng": -114.9480475,
    "nearestTown": "superior",
    "nearestTownName": "Superior",
    "address": "Superior, MT 59872",
    "phone": "\"(406) 329-3750\"",
    "website": "\"https://www.fs.usda.gov/recarea/lolo/recreation/camping-cabins/recarea/?recid=83462&actid=34\"",
    "rating": 4.3,
    "reviews": 3
  },
  {
    "name": "Off the Beaten Path Glampground",
    "slug": "off-the-beaten-path-glampground",
    "category": "private",
    "lat": 47.4587017,
    "lng": -114.8656373,
    "nearestTown": "plains",
    "nearestTownName": "Plains",
    "address": "3 Nob Hl Rd, Plains, MT 59859",
    "phone": "\"(406) 826-3851\"",
    "website": null,
    "rating": 5,
    "reviews": 2
  },
  {
    "name": "J & S RV Park",
    "slug": "j-and-s-rv-park",
    "category": "private",
    "lat": 48.8845094,
    "lng": -111.9115478,
    "nearestTown": "sunburst",
    "nearestTownName": "Sunburst",
    "address": "Sunburst, MT 59482",
    "phone": "\"(406) 434-5222\"",
    "website": "\"http://www.shelbymt.com/\"",
    "rating": 4.5,
    "reviews": 2
  },
  {
    "name": "Steel Creek Campground",
    "slug": "steel-creek-campground",
    "category": "private",
    "lat": 45.603415,
    "lng": -113.336572,
    "nearestTown": "deer-lodge",
    "nearestTownName": "Deer Lodge",
    "address": "Steel Creek Rd, Wisdom, MT 59761",
    "phone": "\"(406) 925-3774\"",
    "website": null,
    "rating": 5,
    "reviews": 1
  },
  {
    "name": "Rainbow Gulch Farm",
    "slug": "rainbow-gulch-farm",
    "category": "private",
    "lat": 46.7879132,
    "lng": -113.7163154,
    "nearestTown": "missoula",
    "nearestTownName": "Missoula",
    "address": "20146 US Hwy 10 E, Clinton, MT 59825",
    "phone": "\"(406) 825-3183\"",
    "website": "\"http://www.ekstromstagestation.com/\"",
    "rating": 5,
    "reviews": 1
  },
  {
    "name": "Hilltop Campgrounds",
    "slug": "hilltop-campgrounds",
    "category": "private",
    "lat": 47.0110886,
    "lng": -108.3522988,
    "nearestTown": "winnett",
    "nearestTownName": "Winnett",
    "address": "813 Broadway Ave, Winnett, MT 59087",
    "phone": null,
    "website": null,
    "rating": 4,
    "reviews": 1
  },
  {
    "name": "Horses and Hay- Solo Campsite w/ RV Hookup",
    "slug": "horses-and-hay-solo-campsite-w-rv-hookup",
    "category": "private",
    "lat": 45.9437161,
    "lng": -108.2491387,
    "nearestTown": "billings",
    "nearestTownName": "Billings",
    "address": "687 W G Rd, Huntley, MT 59037",
    "phone": "\"(406) 259-0878\"",
    "website": "\"https://yellowstoneriverrvpark.com/\"",
    "rating": null,
    "reviews": null
  },
  {
    "name": "Talon Energy",
    "slug": "talon-energy",
    "category": "private",
    "lat": 45.8921805,
    "lng": -106.6182037,
    "nearestTown": "colstrip",
    "nearestTownName": "Colstrip",
    "address": "26 Beechnut Ave, Colstrip, MT 59323",
    "phone": "\"(406) 446-2103\"",
    "website": "\"http://www.fs.usda.gov/recarea/custergallatin/recarea/?recid=60863\"",
    "rating": null,
    "reviews": null
  },
  {
    "name": "B&J RV Park",
    "slug": "bandj-rv-park",
    "category": "private",
    "lat": 45.0222265,
    "lng": -104.4058044,
    "nearestTown": "broadus",
    "nearestTownName": "Broadus",
    "address": "US-212, Alzada, MT 59311",
    "phone": "\"(406) 436-2510\"",
    "website": "\"https://www.waysidervpark.com/\"",
    "rating": null,
    "reviews": null
  },
  {
    "name": "RV Park",
    "slug": "rv-park",
    "category": "private",
    "lat": 45.8921876,
    "lng": -106.6181468,
    "nearestTown": "colstrip",
    "nearestTownName": "Colstrip",
    "address": "26 Beechnut Ave, Colstrip, MT 59323",
    "phone": null,
    "website": null,
    "rating": null,
    "reviews": null
  },
  {
    "name": "Casey's RV Park and Campground",
    "slug": "caseys-rv-park-and-campground",
    "category": "private",
    "lat": 48.428398,
    "lng": -113.2108497,
    "nearestTown": "east-glacier",
    "nearestTownName": "East Glacier",
    "address": "20810 US-2, East Glacier Park, MT 59434",
    "phone": "\"(406) 338-4557\"",
    "website": "\"http://www.blackfeetcampgrounds.com/accommodation/buffalocalf/\"",
    "rating": null,
    "reviews": null
  },
  {
    "name": "Wise River Campgrounds",
    "slug": "wise-river-campgrounds",
    "category": "private",
    "lat": 45.7903324,
    "lng": -112.9542858,
    "nearestTown": "deer-lodge",
    "nearestTownName": "Deer Lodge",
    "address": "MT-43, Wise River, MT 59762",
    "phone": null,
    "website": "\"https://www.blm.gov/visit/divide-bridge-campground\"",
    "rating": null,
    "reviews": null
  },
  {
    "name": "Chief Joseph Park Campground",
    "slug": "chief-joseph-park-campground",
    "category": "private",
    "lat": 46.4347717,
    "lng": -109.8380994,
    "nearestTown": "harlowton",
    "nearestTownName": "Harlowton",
    "address": "C5M6+WQ6, Harlowton, MT 59036",
    "phone": "\"(406) 632-5523\"",
    "website": "\"https://harlowton.municipalimpact.com/park-facilities\"",
    "rating": null,
    "reviews": null
  }
]
