[{"gnisId":5636497,"name":"Abe (historical)","countyFips":"057","lat":45.04326,"lng":-111.68414},{"gnisId":5636514,"name":"Abbott Lake (historical)","countyFips":"073","lat":48.4097,"lng":-112.22921},{"gnisId":5636529,"name":"Absher (historical)","countyFips":"065","lat":46.55831,"lng":-107.984},{"gnisId":5636599,"name":"Adobe (historical)","countyFips":"057","lat":45.31798,"lng":-111.98304},{"gnisId":5636691,"name":"Akerville (historical)","countyFips":"027","lat":47.06386,"lng":-109.4174},{"gnisId":5636746,"name":"Albright (historical)","countyFips":"013","lat":47.14774,"lng":-110.95023},{"gnisId":5636748,"name":"Albright (historical)","countyFips":"087","lat":46.28444,"lng":-106.48808},{"gnisId":5636835,"name":"Alice (historical)","countyFips":"033","lat":46.94721,"lng":-107.57899},{"gnisId":5636926,"name":"Allard (historical)","countyFips":"047","lat":47.74827,"lng":-114.02455},{"gnisId":5636931,"name":"Allen (historical)","countyFips":"033","lat":47.07222,"lng":-106.48504},{"gnisId":5636955,"name":"Allendale (historical)","countyFips":"093","lat":46.0327,"lng":-112.53419},{"gnisId":5636976,"name":"Alma (historical)","countyFips":"051","lat":48.82111,"lng":-110.81886},{"gnisId":5637053,"name":"Altyn (historical)","countyFips":"035","lat":48.79998,"lng":-113.62455},{"gnisId":5637069,"name":"Amador (historical)","countyFips":"061","lat":47.17604,"lng":-114.86985},{"gnisId":5637173,"name":"Anad (historical)","countyFips":"033","lat":47.2275,"lng":-107.33287},{"gnisId":5637249,"name":"Andersonville (historical)","countyFips":"027","lat":47.18692,"lng":-109.28462},{"gnisId":5637315,"name":"Anselmo (historical)","countyFips":"093","lat":46.01659,"lng":-112.54808},{"gnisId":5637545,"name":"Ardrum (historical)","countyFips":"063","lat":46.99492,"lng":-114.12539},{"gnisId":5637589,"name":"Armells (historical)","countyFips":"027","lat":47.31553,"lng":-109.18406},{"gnisId":5637609,"name":"Armstead (historical)","countyFips":"001","lat":44.97242,"lng":-112.86419},{"gnisId":5637683,"name":"Arthur (historical)","countyFips":"083","lat":48.06113,"lng":-105.17276},{"gnisId":5637763,"name":"Ashley (historical)","countyFips":"029","lat":48.19163,"lng":-114.33291},{"gnisId":5637787,"name":"Ashleys Settlement (historical)","countyFips":"089","lat":47.57632,"lng":-115.24682},{"gnisId":5637788,"name":"Ashmoor (historical)","countyFips":"015","lat":48.0633,"lng":-111.32581},{"gnisId":5637874,"name":"Atlantic City (historical)","countyFips":"049","lat":46.78549,"lng":-112.41752},{"gnisId":5637976,"name":"Avondale (historical)","countyFips":"105","lat":48.66503,"lng":-106.1853},{"gnisId":5637998,"name":"Aznoe (historical)","countyFips":"015","lat":47.9583,"lng":-111.32386},{"gnisId":5638246,"name":"Baird (historical)","countyFips":"039","lat":46.71659,"lng":-113.51759},{"gnisId":5638292,"name":"Bakers (historical)","countyFips":"105","lat":48.32086,"lng":-105.88779},{"gnisId":5638572,"name":"Barr (historical)","countyFips":"105","lat":48.73335,"lng":-106.98395},{"gnisId":5638574,"name":"Barr (historical)","countyFips":"105","lat":48.73779,"lng":-107.05395},{"gnisId":5638772,"name":"Battrick (historical)","countyFips":"027","lat":46.9033,"lng":-108.73736},{"gnisId":5639048,"name":"Bearpaw (historical)","countyFips":"005","lat":48.22777,"lng":-109.52297},{"gnisId":5639194,"name":"Beaver Flats (historical)","countyFips":"011","lat":45.845,"lng":-104.70135},{"gnisId":5639271,"name":"Beck (historical)","countyFips":"099","lat":47.78496,"lng":-111.81722},{"gnisId":5639327,"name":"Been (historical)","countyFips":"109","lat":47.20974,"lng":-104.17244},{"gnisId":5639360,"name":"Belgian Colony (historical)","countyFips":"073","lat":48.31665,"lng":-112.03419},{"gnisId":5639443,"name":"Belmont (historical)","countyFips":"049","lat":46.66244,"lng":-112.31557},{"gnisId":5639480,"name":"Belton (historical)","countyFips":"013","lat":47.37552,"lng":-110.92635},{"gnisId":5639550,"name":"Benrud (historical)","countyFips":"085","lat":48.45252,"lng":-105.53472},{"gnisId":5639557,"name":"Bensons Landing (historical)","countyFips":"067","lat":45.69021,"lng":-110.52993},{"gnisId":5639576,"name":"Benton Lake (historical)","countyFips":"013","lat":47.69163,"lng":-111.29247},{"gnisId":5639928,"name":"Big Foot (historical)","countyFips":"043","lat":46.12437,"lng":-112.15083},{"gnisId":5640270,"name":"Big Warm (historical)","countyFips":"005","lat":48.02027,"lng":-108.44931},{"gnisId":5640410,"name":"Birch Creek (historical)","countyFips":"001","lat":45.40909,"lng":-112.71114},{"gnisId":5640520,"name":"Bitter Root (historical)","countyFips":"081","lat":46.57298,"lng":-114.04677},{"gnisId":5640805,"name":"Blackfoot (historical)","countyFips":"033","lat":47.45,"lng":-107.42843},{"gnisId":5640812,"name":"Blackfoot City (historical)","countyFips":"077","lat":46.6816,"lng":-112.54309},{"gnisId":5640970,"name":"Blakeslee (historical)","countyFips":"069","lat":47.19498,"lng":-108.67292},{"gnisId":5641091,"name":"Blue Cloud (historical)","countyFips":"049","lat":46.5916,"lng":-112.15917},{"gnisId":5641453,"name":"Boston Heights (historical)","countyFips":"013","lat":47.50551,"lng":-111.25025},{"gnisId":5641643,"name":"Box Elder (historical)","countyFips":"013","lat":47.4583,"lng":-111.08969},{"gnisId":5641644,"name":"Box Elder (historical)","countyFips":"027","lat":47.33887,"lng":-108.91738},{"gnisId":5641645,"name":"Box Elder (historical)","countyFips":"071","lat":47.88555,"lng":-107.684},{"gnisId":5641696,"name":"Boyd (historical)","countyFips":"085","lat":48.20835,"lng":-104.66496},{"gnisId":5641769,"name":"Bradley (historical)","countyFips":"077","lat":46.57021,"lng":-112.66976},{"gnisId":5641806,"name":"Braggville (historical)","countyFips":"033","lat":47.33056,"lng":-107.18397},{"gnisId":5642038,"name":"Brinkman (historical)","countyFips":"041","lat":48.29165,"lng":-110.62717},{"gnisId":5642042,"name":"Broadhead (historical)","countyFips":"073","lat":48.24025,"lng":-112.38838},{"gnisId":5642146,"name":"Brookside (historical)","countyFips":"071","lat":48.08833,"lng":-108.32458},{"gnisId":5642154,"name":"Brorson (historical)","countyFips":"083","lat":47.77585,"lng":-104.29494},{"gnisId":5642299,"name":"Bruce (historical)","countyFips":"033","lat":47.24944,"lng":-107.41592},{"gnisId":5642325,"name":"Brunelda (historical)","countyFips":"033","lat":46.90222,"lng":-107.27008},{"gnisId":5642557,"name":"Buford (historical)","countyFips":"061","lat":47.29437,"lng":-115.14542},{"gnisId":5642754,"name":"Burlington (historical)","countyFips":"093","lat":46.01243,"lng":-112.59253},{"gnisId":5642812,"name":"Burnt Creek (historical)","countyFips":"103","lat":46.0211,"lng":-107.22839},{"gnisId":5642814,"name":"Burnt Fork (historical)","countyFips":"081","lat":46.46048,"lng":-113.9426},{"gnisId":5642864,"name":"Burton (historical)","countyFips":"099","lat":47.88551,"lng":-112.11196},{"gnisId":5642920,"name":"Butchertown (historical)","countyFips":"093","lat":46.03604,"lng":-112.53558},{"gnisId":5642970,"name":"Butte Creek (historical)","countyFips":"033","lat":47.47778,"lng":-107.25425},{"gnisId":5643149,"name":"Cable City (historical)","countyFips":"023","lat":46.1952,"lng":-113.20922},{"gnisId":5643176,"name":"Cactus Flat (historical)","countyFips":"055","lat":48.02641,"lng":-106.41837},{"gnisId":5643231,"name":"Caledonia (historical)","countyFips":"009","lat":45.16383,"lng":-109.21321},{"gnisId":5643256,"name":"Calkins (historical)","countyFips":"059","lat":46.44161,"lng":-110.92105},{"gnisId":5643345,"name":"Cameron (historical)","countyFips":"045","lat":46.90829,"lng":-110.39243},{"gnisId":5643545,"name":"Canyon (historical)","countyFips":"027","lat":47.1772,"lng":-109.21045},{"gnisId":5643817,"name":"Carperville (historical)","countyFips":"003","lat":45.8547,"lng":-107.61175},{"gnisId":5643834,"name":"Carroll (historical)","countyFips":"027","lat":47.57361,"lng":-108.37346},{"gnisId":5644026,"name":"Castle Rock (historical)","countyFips":"087","lat":45.87555,"lng":-106.80337},{"gnisId":5644191,"name":"Cedar (historical)","countyFips":"089","lat":48.08604,"lng":-116.00656},{"gnisId":5644249,"name":"Cedar Junction (historical)","countyFips":"061","lat":47.1277,"lng":-115.01208},{"gnisId":5644259,"name":"Cedar Mouth (historical)","countyFips":"061","lat":47.17909,"lng":-114.86207},{"gnisId":5644314,"name":"Centerville (historical)","countyFips":"001","lat":45.1552,"lng":-112.97865},{"gnisId":5644315,"name":"Centerville (historical)","countyFips":"013","lat":47.05969,"lng":-110.64577},{"gnisId":5644316,"name":"Centerville (historical)","countyFips":"057","lat":45.44576,"lng":-112.42167},{"gnisId":5644330,"name":"Central City (historical)","countyFips":"057","lat":45.30131,"lng":-111.95637},{"gnisId":5644398,"name":"Chalk Buttes (historical)","countyFips":"011","lat":45.66027,"lng":-104.74218},{"gnisId":5644421,"name":"Champion (historical)","countyFips":"023","lat":46.23382,"lng":-112.61336},{"gnisId":5644520,"name":"Cheadle (historical)","countyFips":"027","lat":47.06108,"lng":-109.15239},{"gnisId":5644526,"name":"Chausse (historical)","countyFips":"011","lat":46.06167,"lng":-104.74913},{"gnisId":5644610,"name":"Cherry Ridge (historical)","countyFips":"005","lat":48.91473,"lng":-109.00654},{"gnisId":5644619,"name":"Cherry Springs (historical)","countyFips":"009","lat":45.30522,"lng":-108.98987},{"gnisId":5644818,"name":"Chippewa (historical)","countyFips":"027","lat":47.09164,"lng":-108.93654},{"gnisId":5645203,"name":"Clark (historical)","countyFips":"039","lat":46.31854,"lng":-113.28756},{"gnisId":5645379,"name":"Clemons (historical)","countyFips":"049","lat":47.30689,"lng":-112.41058},{"gnisId":5645582,"name":"Coal Creek (historical)","countyFips":"055","lat":47.525,"lng":-106.04224},{"gnisId":5645645,"name":"Coalville (historical)","countyFips":"009","lat":45.39995,"lng":-108.92292},{"gnisId":5645827,"name":"Colony Bay (historical)","countyFips":"015","lat":48.03053,"lng":-110.61244},{"gnisId":5646041,"name":"Cone Butte (historical)","countyFips":"027","lat":47.45331,"lng":-109.40907},{"gnisId":5646195,"name":"Coolidge (historical)","countyFips":"001","lat":45.48937,"lng":-113.03643},{"gnisId":5646269,"name":"Copper Camp (historical)","countyFips":"049","lat":47.07022,"lng":-112.7931},{"gnisId":5646348,"name":"Corbly (historical)","countyFips":"027","lat":47.07886,"lng":-109.35629},{"gnisId":5646451,"name":"Corral Creek (historical)","countyFips":"021","lat":47.4489,"lng":-105.30971},{"gnisId":5646790,"name":"Cow Island (historical)","countyFips":"005","lat":47.78721,"lng":-108.93405},{"gnisId":5647025,"name":"Crescent City (historical)","countyFips":"061","lat":47.07076,"lng":-114.81485},{"gnisId":5647184,"name":"Crow Creek City (historical)","countyFips":"007","lat":46.18048,"lng":-111.60775},{"gnisId":5647503,"name":"Cutler (historical)","countyFips":"017","lat":46.2425,"lng":-105.74777},{"gnisId":5647534,"name":"Cypress (historical)","countyFips":"041","lat":48.56667,"lng":-109.8002},{"gnisId":5647619,"name":"Dailey (historical)","countyFips":"067","lat":45.29077,"lng":-110.84161},{"gnisId":5647799,"name":"Darrel (historical)","countyFips":"027","lat":46.7508,"lng":-108.70986},{"gnisId":5647931,"name":"Daytown (historical)","countyFips":"049","lat":46.66105,"lng":-111.6972},{"gnisId":5648070,"name":"Dearborn (historical)","countyFips":"049","lat":47.19856,"lng":-112.09112},{"gnisId":5648157,"name":"Deep Creek (historical)","countyFips":"007","lat":46.32215,"lng":-111.42302},{"gnisId":5648313,"name":"Deertail Indian Village (historical)","countyFips":"085","lat":48.08641,"lng":-105.06525},{"gnisId":5648335,"name":"Delano Heights (historical)","countyFips":"105","lat":48.00418,"lng":-106.49782},{"gnisId":5648364,"name":"Demers (historical)","countyFips":"101","lat":48.88499,"lng":-112.16755},{"gnisId":5648367,"name":"Demersville (historical)","countyFips":"029","lat":48.16274,"lng":-114.26902},{"gnisId":5648394,"name":"Dennison (historical)","countyFips":"049","lat":46.96383,"lng":-111.9425},{"gnisId":5648812,"name":"Dodgetown (historical)","countyFips":"037","lat":46.3069,"lng":-109.36129},{"gnisId":5648875,"name":"Dogtown (historical)","countyFips":"005","lat":48.46861,"lng":-108.62154},{"gnisId":5648878,"name":"Dogtown (historical)","countyFips":"031","lat":45.70826,"lng":-111.17301},{"gnisId":5648956,"name":"Donovan Park (historical)","countyFips":"013","lat":47.41662,"lng":-111.26747},{"gnisId":5649006,"name":"Dotsonville (historical)","countyFips":"049","lat":46.59993,"lng":-112.09528},{"gnisId":5649032,"name":"Douglas (historical)","countyFips":"035","lat":48.86109,"lng":-113.21621},{"gnisId":5649057,"name":"Dovetail (historical)","countyFips":"069","lat":47.34388,"lng":-108.20734},{"gnisId":5649473,"name":"Dryhead (historical)","countyFips":"009","lat":45.17634,"lng":-108.27345},{"gnisId":5649475,"name":"Dryland (historical)","countyFips":"027","lat":47.01164,"lng":-108.94821},{"gnisId":5649587,"name":"Duncan (historical)","countyFips":"029","lat":48.20468,"lng":-114.30096},{"gnisId":5649710,"name":"Dutch Hill (historical)","countyFips":"081","lat":46.31659,"lng":-114.1926},{"gnisId":5649785,"name":"Eagle (historical)","countyFips":"009","lat":45.1255,"lng":-109.16321},{"gnisId":5649905,"name":"East Bench (historical)","countyFips":"001","lat":45.24159,"lng":-112.56474},{"gnisId":5650369,"name":"Eau Clair (historical)","countyFips":"057","lat":45.84298,"lng":-111.91971},{"gnisId":5650384,"name":"Echo Lake (historical)","countyFips":"039","lat":46.23326,"lng":-113.26756},{"gnisId":5650521,"name":"Eight Mile (historical)","countyFips":"081","lat":46.64103,"lng":-113.95233},{"gnisId":5650607,"name":"Eldridge (historical)","countyFips":"031","lat":45.10132,"lng":-111.21884},{"gnisId":5650649,"name":"Elgin (historical)","countyFips":"011","lat":45.75222,"lng":-104.42356},{"gnisId":5650870,"name":"Elloam (historical)","countyFips":"005","lat":48.88667,"lng":-109.38962},{"gnisId":5650943,"name":"Emery (historical)","countyFips":"077","lat":46.37743,"lng":-112.58003},{"gnisId":5651008,"name":"Emory (historical)","countyFips":"037","lat":46.53385,"lng":-108.94655},{"gnisId":5651099,"name":"Erickson (historical)","countyFips":"073","lat":48.11358,"lng":-112.09086},{"gnisId":5651157,"name":"Eskay (historical)","countyFips":"015","lat":47.82998,"lng":-109.63602},{"gnisId":5651183,"name":"Etchetah (historical)","countyFips":"103","lat":46.2036,"lng":-107.4409},{"gnisId":5651195,"name":"Etna (historical)","countyFips":"017","lat":46.1875,"lng":-105.78111},{"gnisId":5651196,"name":"Etna (historical)","countyFips":"081","lat":46.43603,"lng":-114.08427},{"gnisId":5651309,"name":"Everson (historical)","countyFips":"027","lat":47.62359,"lng":-109.75908},{"gnisId":5651402,"name":"Fairview (historical)","countyFips":"001","lat":45.23048,"lng":-112.54252},{"gnisId":5651538,"name":"Family (historical)","countyFips":"035","lat":48.48192,"lng":-112.74451},{"gnisId":5651650,"name":"Fattig (historical)","countyFips":"065","lat":46.36497,"lng":-108.26401},{"gnisId":5651759,"name":"Ferris (historical)","countyFips":"049","lat":46.69105,"lng":-112.38891},{"gnisId":5651853,"name":"Findon (historical)","countyFips":"059","lat":46.60745,"lng":-110.34936},{"gnisId":5652068,"name":"First Creek (historical)","countyFips":"071","lat":47.87305,"lng":-107.87789},{"gnisId":5652167,"name":"Fish Lake (historical)","countyFips":"053","lat":48.67913,"lng":-114.72737},{"gnisId":5652497,"name":"Flood (historical)","countyFips":"013","lat":47.44912,"lng":-111.34247},{"gnisId":5652914,"name":"Fort Union (historical)","countyFips":"085","lat":48.00974,"lng":-104.04882},{"gnisId":5652994,"name":"Foundation (historical)","countyFips":"017","lat":46.25945,"lng":-104.96108},{"gnisId":5653042,"name":"Fourchette (historical)","countyFips":"071","lat":47.73333,"lng":-107.97012},{"gnisId":5653269,"name":"Fredrickson (historical)","countyFips":"023","lat":46.23826,"lng":-112.82587},{"gnisId":5653280,"name":"Free Deal (historical)","countyFips":"105","lat":48.03891,"lng":-106.43948},{"gnisId":5653286,"name":"Freedom (historical)","countyFips":"033","lat":47.18,"lng":-106.8909},{"gnisId":5653343,"name":"French Gulch (historical)","countyFips":"023","lat":45.94437,"lng":-113.03143},{"gnisId":5653478,"name":"Frost (historical)","countyFips":"049","lat":47.29161,"lng":-112.5842},{"gnisId":5653627,"name":"Gallatin (historical)","countyFips":"031","lat":45.92771,"lng":-111.49802},{"gnisId":5653669,"name":"Gallop (historical)","countyFips":"031","lat":45.97632,"lng":-111.09939},{"gnisId":5653818,"name":"Garrison (historical)","countyFips":"013","lat":47.38051,"lng":-111.55914},{"gnisId":5653884,"name":"Gateway (historical)","countyFips":"053","lat":48.99913,"lng":-115.17323},{"gnisId":5653904,"name":"Gauglersville (historical)","countyFips":"059","lat":46.49162,"lng":-110.27574},{"gnisId":5653931,"name":"Geduhn (historical)","countyFips":"029","lat":48.63497,"lng":-113.86345},{"gnisId":5653984,"name":"Genevieve (historical)","countyFips":"105","lat":48.72668,"lng":-107.16312},{"gnisId":5653991,"name":"Genou (historical)","countyFips":"015","lat":48.00135,"lng":-111.25914},{"gnisId":5653996,"name":"George (historical)","countyFips":"051","lat":48.32776,"lng":-110.9433},{"gnisId":5654011,"name":"George Place (historical)","countyFips":"009","lat":45.35911,"lng":-109.51683},{"gnisId":5654377,"name":"Glenbeg (historical)","countyFips":"043","lat":46.36937,"lng":-112.14806},{"gnisId":5654547,"name":"Gold Coin (historical)","countyFips":"023","lat":46.17354,"lng":-113.24478},{"gnisId":5654626,"name":"Golden (historical)","countyFips":"009","lat":45.21884,"lng":-108.96598},{"gnisId":5654701,"name":"Golf Bench (historical)","countyFips":"005","lat":47.83332,"lng":-109.50019},{"gnisId":5654788,"name":"Gopher (historical)","countyFips":"087","lat":45.22333,"lng":-106.30058},{"gnisId":5655052,"name":"Grant Creek (historical)","countyFips":"063","lat":46.95826,"lng":-114.00928},{"gnisId":5655445,"name":"Greve (historical)","countyFips":"071","lat":48.9703,"lng":-107.42008},{"gnisId":5655517,"name":"Grisdella (historical)","countyFips":"033","lat":46.99111,"lng":-106.96368},{"gnisId":5655951,"name":"Hamblin (historical)","countyFips":"055","lat":47.6814,"lng":-105.65445},{"gnisId":5656410,"name":"Haskell (historical)","countyFips":"039","lat":46.61299,"lng":-113.04422},{"gnisId":5656605,"name":"Hay Coulee (historical)","countyFips":"051","lat":48.30693,"lng":-110.81968},{"gnisId":5656744,"name":"Hazny (historical)","countyFips":"033","lat":47.47861,"lng":-107.54315},{"gnisId":5656931,"name":"Hell Gate (historical)","countyFips":"063","lat":46.88326,"lng":-114.08706},{"gnisId":5657172,"name":"Hibbard (historical)","countyFips":"087","lat":46.62443,"lng":-107.65065},{"gnisId":5657314,"name":"Highland City (historical)","countyFips":"093","lat":45.79687,"lng":-112.51613},{"gnisId":5657377,"name":"Hilcrest (historical)","countyFips":"017","lat":46.64306,"lng":-105.97501},{"gnisId":5657564,"name":"Hog Heaven (historical)","countyFips":"029","lat":47.81661,"lng":-114.49818},{"gnisId":5657666,"name":"Hollandville (historical)","countyFips":"005","lat":48.69722,"lng":-109.15906},{"gnisId":5657950,"name":"Hopp (historical)","countyFips":"015","lat":47.90109,"lng":-109.88742},{"gnisId":5657961,"name":"Hopsonville (historical)","countyFips":"087","lat":45.96388,"lng":-106.62336},{"gnisId":5658155,"name":"Hosey (historical)","countyFips":"005","lat":47.85971,"lng":-109.49657},{"gnisId":5658221,"name":"Howard (historical)","countyFips":"087","lat":46.25444,"lng":-106.92894},{"gnisId":5658265,"name":"Hoyle (historical)","countyFips":"069","lat":47.01193,"lng":-108.16568},{"gnisId":5658400,"name":"Hungry Hollow (historical)","countyFips":"005","lat":48.20666,"lng":-109.44741},{"gnisId":5658595,"name":"Idlewile (historical)","countyFips":"105","lat":48.04419,"lng":-106.43031},{"gnisId":5658789,"name":"Inga (historical)","countyFips":"015","lat":48.10414,"lng":-110.33132},{"gnisId":5659146,"name":"Iron Rod (historical)","countyFips":"057","lat":45.64354,"lng":-112.30917},{"gnisId":5659191,"name":"Island City (historical)","countyFips":"089","lat":47.36104,"lng":-114.78985},{"gnisId":5659528,"name":"Jefferson (historical)","countyFips":"031","lat":45.89993,"lng":-111.54247},{"gnisId":5659738,"name":"Jitney (historical)","countyFips":"069","lat":47.02082,"lng":-108.02678},{"gnisId":5659922,"name":"Johnstown (historical)","countyFips":"013","lat":47.50274,"lng":-111.31747},{"gnisId":5660053,"name":"Judith (historical)","countyFips":"027","lat":47.71804,"lng":-109.64297},{"gnisId":5660090,"name":"Julian (historical)","countyFips":"019","lat":48.94252,"lng":-105.35888},{"gnisId":5660319,"name":"Kahle (historical)","countyFips":"019","lat":48.58002,"lng":-105.47055},{"gnisId":5660331,"name":"Kaiver (historical)","countyFips":"105","lat":48.28113,"lng":-106.3867},{"gnisId":5660374,"name":"Kansas Flat (historical)","countyFips":"105","lat":48.73141,"lng":-106.61226},{"gnisId":5660525,"name":"Kendall (historical)","countyFips":"027","lat":47.28442,"lng":-109.46241},{"gnisId":5660592,"name":"Kenwood (historical)","countyFips":"049","lat":46.60688,"lng":-112.07028},{"gnisId":5660599,"name":"Keplerville (historical)","countyFips":"033","lat":47.34583,"lng":-106.6006},{"gnisId":5660672,"name":"Kibbey (historical)","countyFips":"045","lat":47.17802,"lng":-110.73105},{"gnisId":5660753,"name":"Kimball (historical)","countyFips":"017","lat":46.08,"lng":-105.11553},{"gnisId":5661027,"name":"Knobs (historical)","countyFips":"025","lat":45.98417,"lng":-104.08771},{"gnisId":5661134,"name":"Korner (historical)","countyFips":"035","lat":48.9111,"lng":-112.32034},{"gnisId":5661232,"name":"Kurtzville (historical)","countyFips":"103","lat":46.16165,"lng":-107.44868},{"gnisId":5661494,"name":"Lakeview (historical)","countyFips":"105","lat":48.0028,"lng":-106.49782},{"gnisId":5661591,"name":"Landtsheim (historical)","countyFips":"021","lat":47.12446,"lng":-104.79219},{"gnisId":5661607,"name":"Langford City (historical)","countyFips":"059","lat":46.54827,"lng":-111.03216},{"gnisId":5661637,"name":"Larb (historical)","countyFips":"105","lat":48.21472,"lng":-107.29954},{"gnisId":5661821,"name":"Lay Settlement (historical)","countyFips":"031","lat":45.60826,"lng":-111.15078},{"gnisId":5661830,"name":"Lazy Day (historical)","countyFips":"067","lat":45.28605,"lng":-110.23825},{"gnisId":5661899,"name":"Lee (historical)","countyFips":"087","lat":45.86778,"lng":-106.39001},{"gnisId":5661931,"name":"Leedy (historical)","countyFips":"071","lat":47.65695,"lng":-107.59788},{"gnisId":5661961,"name":"Legg (historical)","countyFips":"071","lat":47.59305,"lng":-107.89956},{"gnisId":5662160,"name":"Lewiston (historical)","countyFips":"043","lat":46.46382,"lng":-111.98638},{"gnisId":5662220,"name":"Liberty Center (historical)","countyFips":"099","lat":47.92718,"lng":-111.98557},{"gnisId":5662514,"name":"Linley (historical)","countyFips":"009","lat":45.28467,"lng":-109.42433},{"gnisId":5662518,"name":"Lion City (historical)","countyFips":"001","lat":45.60826,"lng":-112.92587},{"gnisId":5662593,"name":"Lismas (historical)","countyFips":"105","lat":47.93974,"lng":-106.52838},{"gnisId":5662615,"name":"Little Bear (historical)","countyFips":"031","lat":45.54493,"lng":-111.16884},{"gnisId":5662722,"name":"Little Chicago (historical)","countyFips":"013","lat":47.52718,"lng":-111.27581},{"gnisId":5662749,"name":"Little Crooked (historical)","countyFips":"027","lat":47.50916,"lng":-108.5507},{"gnisId":5663335,"name":"Lone Tree (historical)","countyFips":"073","lat":48.38054,"lng":-112.05642},{"gnisId":5663430,"name":"Lonesome Prairie (historical)","countyFips":"015","lat":48.24442,"lng":-110.26743},{"gnisId":5663434,"name":"Lonetree (historical)","countyFips":"015","lat":47.54164,"lng":-110.28409},{"gnisId":5663673,"name":"Lost Creek (historical)","countyFips":"055","lat":47.51668,"lng":-105.58389},{"gnisId":5663730,"name":"Lost Lake (historical)","countyFips":"071","lat":48.64167,"lng":-108.27846},{"gnisId":5663860,"name":"Lower Bridger (historical)","countyFips":"031","lat":45.70271,"lng":-110.92883},{"gnisId":5663923,"name":"Lower Madison (historical)","countyFips":"031","lat":45.83882,"lng":-111.47858},{"gnisId":5664011,"name":"Lowrane (historical)","countyFips":"071","lat":48.93835,"lng":-107.82232},{"gnisId":5664065,"name":"Lufboro (historical)","countyFips":"021","lat":47.28335,"lng":-104.45884},{"gnisId":5664243,"name":"MacKenzie (historical)","countyFips":"025","lat":46.15722,"lng":-104.71329},{"gnisId":5664553,"name":"Manicke (historical)","countyFips":"053","lat":48.04161,"lng":-115.29822},{"gnisId":5664569,"name":"Mann (historical)","countyFips":"045","lat":47.26358,"lng":-110.72522},{"gnisId":5664772,"name":"Martin (historical)","countyFips":"033","lat":46.90777,"lng":-107.74566},{"gnisId":5665121,"name":"McCarthyville (historical)","countyFips":"029","lat":48.2708,"lng":-113.43982},{"gnisId":5665185,"name":"McCone City (historical)","countyFips":"055","lat":48.03752,"lng":-106.41448},{"gnisId":5665221,"name":"McDermott (historical)","countyFips":"101","lat":48.9139,"lng":-111.52304},{"gnisId":5665499,"name":"McRae (historical)","countyFips":"003","lat":45.87832,"lng":-107.12005},{"gnisId":5665504,"name":"McTwiggan (historical)","countyFips":"033","lat":47.00555,"lng":-107.70899},{"gnisId":5665620,"name":"Mecaha (historical)","countyFips":"033","lat":47.32083,"lng":-107.93456},{"gnisId":5665813,"name":"Metersville (historical)","countyFips":"033","lat":47.49028,"lng":-107.60066},{"gnisId":5665853,"name":"Meyersburg (historical)","countyFips":"067","lat":46.01105,"lng":-110.66326},{"gnisId":5665881,"name":"Michigan Settlement (historical)","countyFips":"013","lat":47.13941,"lng":-110.83633},{"gnisId":5665904,"name":"Midby (historical)","countyFips":"091","lat":48.76781,"lng":-104.68607},{"gnisId":5665933,"name":"Middle Creek (historical)","countyFips":"031","lat":45.69993,"lng":-111.16967},{"gnisId":5666118,"name":"Midland (historical)","countyFips":"011","lat":45.67639,"lng":-104.05744},{"gnisId":5666129,"name":"Midway (historical)","countyFips":"073","lat":48.09997,"lng":-111.8814},{"gnisId":5666130,"name":"Midway (historical)","countyFips":"105","lat":48.02502,"lng":-106.4567},{"gnisId":5666131,"name":"Midway (historical)","countyFips":"105","lat":48.5528,"lng":-106.45337},{"gnisId":5666152,"name":"Mike Horse (historical)","countyFips":"049","lat":47.02633,"lng":-112.36058},{"gnisId":5666427,"name":"Mills Springs (historical)","countyFips":"053","lat":48.9083,"lng":-115.05378},{"gnisId":5666533,"name":"Mink (historical)","countyFips":"021","lat":47.34612,"lng":-105.27221},{"gnisId":5666549,"name":"Minneota (historical)","countyFips":"041","lat":48.88556,"lng":-110.66413},{"gnisId":5666555,"name":"Minnesota Settlement (historical)","countyFips":"005","lat":48.80834,"lng":-109.11183},{"gnisId":5666568,"name":"Minot (historical)","countyFips":"105","lat":48.01696,"lng":-106.51337},{"gnisId":5666678,"name":"Missouri Flats (historical)","countyFips":"057","lat":44.8027,"lng":-111.5258},{"gnisId":5666759,"name":"Mobridge (historical)","countyFips":"027","lat":47.61943,"lng":-108.68071},{"gnisId":5666847,"name":"Mona (historical)","countyFips":"083","lat":47.96946,"lng":-104.69829},{"gnisId":5666879,"name":"Monforton (historical)","countyFips":"031","lat":45.67521,"lng":-111.17079},{"gnisId":5667013,"name":"Montanapolis Springs (historical)","countyFips":"067","lat":45.31216,"lng":-110.56659},{"gnisId":5667076,"name":"Moon Creek (historical)","countyFips":"017","lat":46.19445,"lng":-106.04778},{"gnisId":5667141,"name":"Moores (historical)","countyFips":"075","lat":45.2686,"lng":-105.59722},{"gnisId":5667223,"name":"Moosehorn (historical)","countyFips":"001","lat":45.53603,"lng":-113.73924},{"gnisId":5667399,"name":"Mouat (historical)","countyFips":"095","lat":45.34994,"lng":-109.9174},{"gnisId":5667508,"name":"Mountain View (historical)","countyFips":"047","lat":47.64438,"lng":-114.07594},{"gnisId":5667651,"name":"Mud Lake (historical)","countyFips":"029","lat":48.1194,"lng":-113.99955},{"gnisId":5667857,"name":"Muscleshell City (historical)","countyFips":"069","lat":47.45555,"lng":-107.91456},{"gnisId":5668378,"name":"Negro Prairie (historical)","countyFips":"029","lat":48.12079,"lng":-114.01761},{"gnisId":5668409,"name":"Nelson (historical)","countyFips":"027","lat":47.1047,"lng":-109.23823},{"gnisId":5668473,"name":"Nelsons Crossing (historical)","countyFips":"031","lat":45.78743,"lng":-111.25218},{"gnisId":5668539,"name":"New Deal (historical)","countyFips":"105","lat":48.02446,"lng":-106.46476},{"gnisId":5668554,"name":"New Haven (historical)","countyFips":"043","lat":46.46243,"lng":-111.98638},{"gnisId":5668655,"name":"Nicholia (historical)","countyFips":"001","lat":44.51519,"lng":-112.88696},{"gnisId":5668884,"name":"Norheim (historical)","countyFips":"005","lat":48.99251,"lng":-109.27434},{"gnisId":5669412,"name":"North Great Falls (historical)","countyFips":"013","lat":47.53329,"lng":-111.26136},{"gnisId":5669508,"name":"North Walkerville (historical)","countyFips":"093","lat":46.03326,"lng":-112.53419},{"gnisId":5669577,"name":"Norwegian Settlement (historical)","countyFips":"097","lat":46.10828,"lng":-109.97574},{"gnisId":5669589,"name":"Novary (historical)","countyFips":"027","lat":47.06247,"lng":-109.03822},{"gnisId":5669844,"name":"Olanda (historical)","countyFips":"079","lat":47.12223,"lng":-105.60806},{"gnisId":5670073,"name":"Oneill (historical)","countyFips":"017","lat":46.14861,"lng":-105.15053},{"gnisId":5670110,"name":"Ophir (historical)","countyFips":"015","lat":47.93192,"lng":-110.47299},{"gnisId":5670196,"name":"Ossette (historical)","countyFips":"019","lat":48.59169,"lng":-106.00946},{"gnisId":5670209,"name":"Oscar (historical)","countyFips":"041","lat":48.42388,"lng":-109.60908},{"gnisId":5670625,"name":"Paris (historical)","countyFips":"055","lat":47.29111,"lng":-106.15892},{"gnisId":5670668,"name":"Park Dale (historical)","countyFips":"105","lat":48.04363,"lng":-106.44115},{"gnisId":5670695,"name":"Parkdale (historical)","countyFips":"029","lat":48.21663,"lng":-114.31208},{"gnisId":5670815,"name":"Patterson (historical)","countyFips":"015","lat":47.64553,"lng":-110.56604},{"gnisId":5670861,"name":"Paxton (historical)","countyFips":"021","lat":47.63112,"lng":-105.34138},{"gnisId":5670915,"name":"Pearmond (historical)","countyFips":"055","lat":48.00752,"lng":-105.85834},{"gnisId":5671044,"name":"Penwells (historical)","countyFips":"031","lat":45.8416,"lng":-110.99467},{"gnisId":5671100,"name":"Pershing (historical)","countyFips":"011","lat":45.75527,"lng":-104.54912},{"gnisId":5671235,"name":"Philbrook (historical)","countyFips":"045","lat":46.98552,"lng":-109.97381},{"gnisId":5671285,"name":"Phon (historical)","countyFips":"033","lat":47.515,"lng":-106.56921},{"gnisId":5671754,"name":"Pleasant Valley (historical)","countyFips":"015","lat":47.94997,"lng":-110.68411},{"gnisId":5671755,"name":"Pleasant Valley (historical)","countyFips":"055","lat":48.05696,"lng":-105.58111},{"gnisId":5672120,"name":"Porcupine (historical)","countyFips":"087","lat":46.28972,"lng":-106.66031},{"gnisId":5672388,"name":"Power Plant (historical)","countyFips":"005","lat":47.74026,"lng":-108.90322},{"gnisId":5672429,"name":"Prairie Dale (historical)","countyFips":"011","lat":45.69722,"lng":-104.50328},{"gnisId":5672439,"name":"Prairie Elk (historical)","countyFips":"055","lat":47.78334,"lng":-105.86307},{"gnisId":5672503,"name":"Presserville (historical)","countyFips":"055","lat":47.83279,"lng":-105.48888},{"gnisId":5672700,"name":"Purewater (historical)","countyFips":"033","lat":47.22222,"lng":-106.23392},{"gnisId":5672929,"name":"Racine Ford (historical)","countyFips":"049","lat":47.47911,"lng":-112.58698},{"gnisId":5672959,"name":"Ragland Bench (historical)","countyFips":"005","lat":47.78498,"lng":-109.4299},{"gnisId":5673034,"name":"Ramburg (historical)","countyFips":"005","lat":48.35694,"lng":-109.0585},{"gnisId":5673049,"name":"Ramsey (historical)","countyFips":"029","lat":48.42496,"lng":-114.34541},{"gnisId":5673068,"name":"Rancher (historical)","countyFips":"103","lat":46.26388,"lng":-107.40285},{"gnisId":5673288,"name":"Reasville (historical)","countyFips":"031","lat":45.67187,"lng":-111.12412},{"gnisId":5673428,"name":"Red Mountain (historical)","countyFips":"093","lat":45.79437,"lng":-112.48585},{"gnisId":5673542,"name":"Redwater (historical)","countyFips":"055","lat":47.53057,"lng":-105.40694},{"gnisId":5673593,"name":"Reese Creek (historical)","countyFips":"031","lat":45.86382,"lng":-111.08412},{"gnisId":5673606,"name":"Regina (historical)","countyFips":"071","lat":47.92833,"lng":-107.9854},{"gnisId":5673669,"name":"Republic (historical)","countyFips":"065","lat":46.40357,"lng":-108.53736},{"gnisId":5673738,"name":"Reuter (historical)","countyFips":"029","lat":48.82275,"lng":-114.33986},{"gnisId":5673914,"name":"Riedel (historical)","countyFips":"005","lat":47.98332,"lng":-109.3574},{"gnisId":5674032,"name":"Riverside (historical)","countyFips":"053","lat":48.92496,"lng":-115.17934},{"gnisId":5674035,"name":"Riverside (historical)","countyFips":"105","lat":48.26224,"lng":-106.73811},{"gnisId":5674151,"name":"Robere (historical)","countyFips":"073","lat":48.32553,"lng":-112.552},{"gnisId":5674391,"name":"Rockford (historical)","countyFips":"027","lat":46.94025,"lng":-109.61602},{"gnisId":5674504,"name":"Rocky Point (historical)","countyFips":"027","lat":47.59999,"lng":-108.43819},{"gnisId":5674687,"name":"Rose Hill (historical)","countyFips":"105","lat":48.35558,"lng":-106.56671},{"gnisId":5674937,"name":"Royston (historical)","countyFips":"093","lat":45.7527,"lng":-112.5203},{"gnisId":5674961,"name":"Ruby Gulch (historical)","countyFips":"027","lat":47.11192,"lng":-109.29712},{"gnisId":5675043,"name":"Rumble Creek (historical)","countyFips":"027","lat":47.5622,"lng":-109.49935},{"gnisId":5675083,"name":"Russell (historical)","countyFips":"015","lat":48.06386,"lng":-111.0633},{"gnisId":5675116,"name":"Rustle (historical)","countyFips":"027","lat":47.19248,"lng":-109.20767},{"gnisId":5675508,"name":"Sabra (historical)","countyFips":"087","lat":46.09389,"lng":-106.43835},{"gnisId":5675587,"name":"Sadie (historical)","countyFips":"017","lat":46.33333,"lng":-106.09362},{"gnisId":5675666,"name":"Sahara (historical)","countyFips":"037","lat":46.74441,"lng":-109.14711},{"gnisId":5675729,"name":"Saint Clair (historical)","countyFips":"013","lat":47.28078,"lng":-111.68137},{"gnisId":5676072,"name":"Saints Rest (historical)","countyFips":"087","lat":45.69583,"lng":-106.6992},{"gnisId":5676121,"name":"Salt Creek (historical)","countyFips":"027","lat":47.45192,"lng":-109.47991},{"gnisId":5676245,"name":"Sand Creek (historical)","countyFips":"055","lat":47.84057,"lng":-105.66222},{"gnisId":5676380,"name":"Sarpy (historical)","countyFips":"003","lat":45.79582,"lng":-106.95282},{"gnisId":5676763,"name":"Scotch Coulee (historical)","countyFips":"009","lat":45.16383,"lng":-109.21321},{"gnisId":5676767,"name":"Scotchville (historical)","countyFips":"053","lat":48.29996,"lng":-115.30794},{"gnisId":5676827,"name":"Sears (historical)","countyFips":"083","lat":47.54252,"lng":-104.29244},{"gnisId":5676933,"name":"Selma (historical)","countyFips":"051","lat":48.21331,"lng":-111.1297},{"gnisId":5676992,"name":"Seright (historical)","countyFips":"027","lat":46.96802,"lng":-109.64019},{"gnisId":5677010,"name":"Seven Mile (historical)","countyFips":"049","lat":46.63327,"lng":-112.08417},{"gnisId":5677090,"name":"Seventynine (historical)","countyFips":"037","lat":46.14856,"lng":-109.29045},{"gnisId":5677166,"name":"Shambo (historical)","countyFips":"041","lat":48.29999,"lng":-109.6452},{"gnisId":5677190,"name":"Shangville (historical)","countyFips":"063","lat":46.98464,"lng":-114.40651},{"gnisId":5677206,"name":"Shannonville (historical)","countyFips":"089","lat":47.6416,"lng":-115.39543},{"gnisId":5677212,"name":"Sharkeyville (historical)","countyFips":"077","lat":46.6416,"lng":-112.83699},{"gnisId":5677255,"name":"Shay (historical)","countyFips":"069","lat":47.07443,"lng":-108.15623},{"gnisId":5677283,"name":"Sheds (historical)","countyFips":"031","lat":45.67215,"lng":-111.20412},{"gnisId":5677638,"name":"Shorey (historical)","countyFips":"095","lat":46.08051,"lng":-109.10072},{"gnisId":5677784,"name":"Signal Butte (historical)","countyFips":"087","lat":45.95361,"lng":-106.35057},{"gnisId":5677820,"name":"Silver Bow (historical)","countyFips":"005","lat":48.87306,"lng":-108.71876},{"gnisId":5677876,"name":"Silver King (historical)","countyFips":"049","lat":47.09772,"lng":-112.48142},{"gnisId":5677907,"name":"Silver Lake (historical)","countyFips":"023","lat":46.17131,"lng":-113.23506},{"gnisId":5678055,"name":"Six Mile (historical)","countyFips":"063","lat":47.03326,"lng":-114.35234},{"gnisId":5678104,"name":"Skaggs (historical)","countyFips":"027","lat":47.05608,"lng":-109.22017},{"gnisId":5678263,"name":"Slayton Junction (historical)","countyFips":"037","lat":46.29801,"lng":-109.06155},{"gnisId":5678380,"name":"Smead (historical)","countyFips":"089","lat":48.02132,"lng":-115.85656},{"gnisId":5678516,"name":"Smithson (historical)","countyFips":"033","lat":47.44861,"lng":-107.909},{"gnisId":5678798,"name":"Sollid (historical)","countyFips":"073","lat":48.17692,"lng":-111.49666},{"gnisId":5678858,"name":"Sour Dough Flat (historical)","countyFips":"005","lat":47.99943,"lng":-109.37518},{"gnisId":5678957,"name":"South Fork (historical)","countyFips":"029","lat":48.34719,"lng":-114.00789},{"gnisId":5679419,"name":"Southern Cross (historical)","countyFips":"023","lat":46.2102,"lng":-113.23645},{"gnisId":5679991,"name":"Spring Valley (historical)","countyFips":"047","lat":47.68827,"lng":-114.35096},{"gnisId":5680102,"name":"Square Deal (historical)","countyFips":"105","lat":48.03807,"lng":-106.46643},{"gnisId":5680629,"name":"Stonehill (historical)","countyFips":"053","lat":48.74607,"lng":-115.30045},{"gnisId":5680692,"name":"Storrs (historical)","countyFips":"031","lat":45.62965,"lng":-110.843},{"gnisId":5680705,"name":"Stovepipe (historical)","countyFips":"063","lat":47.0277,"lng":-114.32317},{"gnisId":5680787,"name":"Stringtown (historical)","countyFips":"057","lat":45.74937,"lng":-111.76748},{"gnisId":5680792,"name":"Stringtown (historical)","countyFips":"093","lat":46.04159,"lng":-112.5453},{"gnisId":5680855,"name":"Stump Town (historical)","countyFips":"039","lat":46.82827,"lng":-113.34674},{"gnisId":5680924,"name":"Sullivan (historical)","countyFips":"035","lat":48.98749,"lng":-113.04954},{"gnisId":5681271,"name":"Sutherland (historical)","countyFips":"079","lat":46.57806,"lng":-105.34499},{"gnisId":5681356,"name":"Swan River (historical)","countyFips":"029","lat":48.09551,"lng":-114.02872},{"gnisId":5681416,"name":"Sweeney Creek (historical)","countyFips":"081","lat":46.61103,"lng":-114.08983},{"gnisId":5681450,"name":"Sweetwater (historical)","countyFips":"057","lat":45.11575,"lng":-112.18415},{"gnisId":5682228,"name":"Thomasville (historical)","countyFips":"031","lat":45.82993,"lng":-111.04245},{"gnisId":5682632,"name":"Tindall (historical)","countyFips":"033","lat":47.15833,"lng":-107.61677},{"gnisId":5682660,"name":"Tipville (historical)","countyFips":"035","lat":48.85138,"lng":-112.32033},{"gnisId":5682669,"name":"Tobacco (historical)","countyFips":"053","lat":48.91997,"lng":-115.05656},{"gnisId":5683131,"name":"Trine (historical)","countyFips":"071","lat":47.7925,"lng":-108.34513},{"gnisId":5683136,"name":"Trinity (historical)","countyFips":"049","lat":46.76938,"lng":-112.21751},{"gnisId":5683825,"name":"Union (historical)","countyFips":"021","lat":47.18723,"lng":-105.30638},{"gnisId":5683964,"name":"Upper Bridger (historical)","countyFips":"031","lat":45.73576,"lng":-110.90383},{"gnisId":5684150,"name":"Ural (historical)","countyFips":"053","lat":48.60968,"lng":-115.25433},{"gnisId":5684234,"name":"Valley (historical)","countyFips":"043","lat":46.02354,"lng":-112.1175},{"gnisId":5684597,"name":"Volcour (historical)","countyFips":"053","lat":48.54857,"lng":-115.21766},{"gnisId":5684710,"name":"Wagsmith Villa (historical)","countyFips":"029","lat":48.34719,"lng":-114.00789},{"gnisId":5684741,"name":"Walker (historical)","countyFips":"031","lat":45.7666,"lng":-111.02856},{"gnisId":5684807,"name":"Wallview (historical)","countyFips":"069","lat":46.76386,"lng":-108.46596},{"gnisId":5684848,"name":"Wanso (historical)","countyFips":"091","lat":48.63725,"lng":-104.87552},{"gnisId":5684914,"name":"Warland (historical)","countyFips":"053","lat":48.50079,"lng":-115.28739},{"gnisId":5684968,"name":"Warr (historical)","countyFips":"027","lat":46.83191,"lng":-108.82348},{"gnisId":5685099,"name":"Watson (historical)","countyFips":"013","lat":47.57496,"lng":-111.27164},{"gnisId":5685111,"name":"Watson Flats (historical)","countyFips":"033","lat":47.08555,"lng":-106.27837},{"gnisId":5685215,"name":"Weede (historical)","countyFips":"069","lat":46.91999,"lng":-107.92289},{"gnisId":5685894,"name":"Wheaton (historical)","countyFips":"065","lat":46.58441,"lng":-108.85154},{"gnisId":5685969,"name":"Whitcomb (historical)","countyFips":"071","lat":47.93138,"lng":-108.5557},{"gnisId":5685980,"name":"White (historical)","countyFips":"055","lat":47.29167,"lng":-106.03391},{"gnisId":5686428,"name":"Wild Rose (historical)","countyFips":"105","lat":48.63947,"lng":-106.34781},{"gnisId":5686836,"name":"Wing (historical)","countyFips":"005","lat":48.78889,"lng":-108.58598},{"gnisId":5686843,"name":"Wingina (historical)","countyFips":"073","lat":48.32248,"lng":-112.12114},{"gnisId":5686899,"name":"Wiota (historical)","countyFips":"105","lat":48.09752,"lng":-106.26142},{"gnisId":5687148,"name":"Woodhawk (historical)","countyFips":"027","lat":47.71498,"lng":-109.20073},{"gnisId":5687273,"name":"Wormser (historical)","countyFips":"097","lat":45.97717,"lng":-110.00047},{"gnisId":5687379,"name":"Yakt (historical)","countyFips":"029","lat":48.02689,"lng":-115.00653},{"gnisId":5687394,"name":"Yankee Flat (historical)","countyFips":"001","lat":45.15881,"lng":-112.99531},{"gnisId":5687484,"name":"Ynot (historical)","countyFips":"071","lat":48.83668,"lng":-107.6762},{"gnisId":5843825,"name":"Box Springs (historical)","countyFips":"027","lat":47.00497,"lng":-109.34657}]